stop_id,stop_name,stop_desc,stop_lat,stop_lon,zone_id,stop_url,location_type,parent_station,stop_timezone,wheelchair_boarding
7,St Joseph Catholic Church, Unit @,41.713089,-83.70304,,,,,,0
9,Park Station, Unit @ & Madison Ave,41.652428,-83.538067,,,,,,0
25,Centennial Terrace,,41.716015,-83.743987,,,,,,0
27,Franklin Park,ROYER RD & MONROE ST,41.694349,-83.637197,,,,,,0
28,Miracle Mile, Unit @,41.706095,-83.58682,,,,,,0
30,Bennett & Eleanor, Unit @ & Eleanor Ave,41.700115,-83.556236,,,,,,0
40,UTMC Campus,3000 Unit @ & TRANSVERSE DR,41.617731,-83.618836,,,,,,0
44,Notre Dame Academy, Unit @ & Harvest Ln,41.691423,-83.629721,,,,,,0
46,Emmanuel Christian School, Unit @ & Paddington Dr,41.705028,-83.65142,,,,,,0
77,UT Transit Center,1554 Towerview S,41.654458,-83.614596,,,,,,0
90,Holland Sylvania Walmart,,41.674756,-83.682148,,,,,,0
98,Perry Station, Unit @ & N Saint Clair St,41.65025,-83.53613,,,,,,0
116,Central Meijer, Unit @ & Meijer Dr,41.676167,-83.71659,,,,,,0
120,Maumee Meijer,1391 UNNAMED ST,41.57864,-83.664297,,,,,,0
146,Cardinal Stritch,Pickle Rd & Munding Dr,41.629566,-83.477715,,,,,,0
151,E Broadway Grade School,1755 Unit @,41.619529,-83.513782,,,,,,0
161,SeaGate Station,,41.653372,-83.532357,,,,,,0
172,Alexis Meijer,,41.722014,-83.511061,,,,,,0
175,St John the Baptist Catholic School,2729 124th St,41.716496,-83.480607,,,,,,0
180,SeaGate Station,,41.653527,-83.532647,,,,,,0
191,Southwyck,5237 Southwyck Blvd,41.600451,-83.666263,,,,,,0
215,Start High School, Unit @ & Coolidge Pkwy,41.698372,-83.590841,,,,,,0
219,Central Catholic School,2550 Cherry St,41.672685,-83.545221,,,,,,0
227,Toledo Technology Academy,3301 Upton Ave,41.682565,-83.58931,,,,,,0
251,ProMedica Pkwy & Christie, Unit @ & Christie Dr,41.673386,-83.594307,,,,,,0
253,Central & Valleyview, Unit @ & Valley View Dr,41.676964,-83.657211,,,,,,0
255,Central & Exmoor, Unit @ & Exmoor,41.676792,-83.664398,,,,,,0
258,Ottawa Hills Schools,INDIAN RD & ASHBORNE PL,41.666833,-83.630401,,,,,,0
302,Trinity Lutheran School, Unit @,41.608652,-83.649587,,,,,,0
306,Bowsher High School, Unit @ & Arlington Ave,41.623942,-83.59738,,,,,,0
308,Southland,3428 GLENDALE AVE & N ST CLAIR ST,41.613246,-83.623964,,,,,,0
317,Toledo Christian School, Unit @ & Brookford Dr,41.599976,-83.601371,,,,,,0
343,Scott High School,2400 Collingwood Blvd,41.668469,-83.555163,,,,,,0
362,Woodward High School, Unit @ & E CENTRAL AVE,41.679004,-83.527854,,,,,,0
371,Alexis & Enterprise SE,1180 E Alexis Rd,41.722722,-83.518043,,,,,,0
374,Government Station, Unit @ & N Huron St,41.654856,-83.535529,,,,,,0
398,Waite High School, Unit @ & 4TH ST,41.648681,-83.518997,,,,,,0
433,OLPH Grade School, Unit @ & Sherwood Ave,41.602793,-83.599192,,,,,,0
434,St Patrick of Heatherdowns School, Unit @ & Eastgate Rd,41.594198,-83.643935,,,,,,0
479,3rd & Farnsworth, Unit @ & N 3rd St,41.499411,-83.720194,,,,,,0
480,Waterville Kroger,PRAY BLVD & WATERVILLE SWANTON RD,41.50845,-83.747823,,,,,,0
484,St Lukes Hospital,UNNAMED ST,41.558551,-83.681085,,,,,,0
535,Bancroft & Whitehall, Unit @ & Whitehall Rd,41.662163,-83.632423,,,,,,0
565,St Francis High School,2323 W Bancroft St,41.663196,-83.598513,,,,,,0
567,St Ursula Academy,4025 Indian Rd,41.67111,-83.639306,,,,,,0
577,Lourdes University, Unit @ & HAMILTON ST,41.709107,-83.706527,,,,,,0
602,Hollywood Casino,UNNAMED ST & RALSTON CIR,41.620655,-83.546469,,,,,,0
618,Hill Ave Lott Industries,3350 Unit @,41.638543,-83.62176,,,,,,0
646,Airport & Holland Sylvania,S HOLLAND SYLVANIA RD & AIRPORT HWY,41.613715,-83.684162,,,,,,0
649,Dorr & Reynolds,5200 N REYNOLDS RD & DORR ST,41.653364,-83.664858,,,,,,0
656,Adams & 18th NE,ADAMS ST & 18TH ST,41.658382,-83.545689,,,,,,0
658,Madison & 10th,Madison Ave & N Michigan St,41.654067,-83.540534,,,,,,0
740,Toledo Zoo,2700 BROADWAY ST & UNNAMED ST,41.617375,-83.579665,,,,,,0
741,Flower Hospital,5220 HARROUN RD & UNNAMED ST,41.707369,-83.693003,,,,,,0
764,108th & 290th NE,108TH ST & 290TH ST,41.708462,-83.485913,,,,,,0
765,108th & 294th NE,108TH ST & 294TH ST,41.708163,-83.483124,,,,,,0
766,108th & 294th SW,108TH ST & 290TH ST,41.708151,-83.48345,,,,,,0
767,108th & 298th NE,108TH ST & 298TH ST,41.707941,-83.481104,,,,,,0
768,108th & 298th NW,108TH ST & 298TH ST,41.707979,-83.481558,,,,,,0
769,108th & Summit,108TH ST & N SUMMIT ST,41.707709,-83.479233,,,,,,0
770,131st & 301st NE,131ST ST & 301ST ST,41.720143,-83.477913,,,,,,0
771,131st & 302nd SW,131ST ST & 302ND ST,41.720046,-83.47779,,,,,,0
772,131st & 303rd NE,131ST ST & 303RD ST,41.720155,-83.476294,,,,,,0
773,131st & 304th NE,131ST ST & 304TH ST,41.720169,-83.475161,,,,,,0
774,131st & 304th SW,131ST ST & 304TH ST,41.720092,-83.475931,,,,,,0
775,131st & 308th SW,131ST ST & 308TH ST,41.720135,-83.473066,,,,,,0
776,131st & Edgewater NW,131ST ST & EDGEWATER DR,41.720263,-83.470366,,,,,,0
777,131st & Edgewater SW,131ST ST & EDGEWATER DR,41.720211,-83.470269,,,,,,0
779,145th & 319th NE,145TH ST & 319TH ST,41.727896,-83.46214,,,,,,0
780,145th & 321st NE,145TH ST & 321ST ST,41.727932,-83.460614,,,,,,0
781,149th & 147th SW,149TH ST & 147TH ST,41.730719,-83.462089,,,,,,0
782,149th & 317th SE,149TH ST & 317TH ST,41.730702,-83.463723,,,,,,0
783,149th & 324th SW,149TH ST & 324TH ST,41.730751,-83.45853,,,,,,0
784,14th & Jefferson,14TH ST & JEFFERSON AVE,41.655444,-83.544123,,,,,,0
785,290th & 101st NW,290TH ST & 101ST ST,41.70492,-83.486176,,,,,,0
786,290th & 101st SE,290TH ST & 101ST ST,41.7043,-83.486081,,,,,,0
787,290th & 104th NW,290TH ST & 104TH ST,41.706985,-83.486309,,,,,,0
788,290th & 104th SE,290TH ST & 104TH ST,41.706542,-83.486205,,,,,,0
789,290th & 108th SE,290TH ST & 108TH ST,41.708394,-83.486313,,,,,,0
790,290th & Lehman,290TH ST & LEHMAN AVE,41.701928,-83.486047,,,,,,0
791,2nd & South NW,S 2ND ST & SOUTH ST,41.498281,-83.718679,,,,,,0
792,324th & 146th NW,324TH ST & 146TH ST,41.729945,-83.457959,,,,,,0
800,Adams & 12th SW,ADAMS ST & 12TH ST,41.656318,-83.541639,,,,,,0
801,Adams & 14th SW,ADAMS ST & 14TH ST,41.657196,-83.543441,,,,,,0
802,Adams & 17th SW,ADAMS ST & 17TH ST,41.658157,-83.545534,,,,,,0
803,Adams & 20th SW,ADAMS ST & 20TH ST,41.659139,-83.547597,,,,,,0
804,Adams & Ontario SW,ADAMS ST & N ONTARIO ST,41.654837,-83.538472,,,,,,0
805,Adams & Warren NE,ADAMS ST & WARREN ST,41.658943,-83.546825,,,,,,0
806,Airport & Apple,AIRPORT HWY & APPLE AVE,41.630392,-83.600127,,,,,,0
807,Airport & Barclay SW,AIRPORT HWY & BARCLAY DR,41.627967,-83.610113,,,,,,0
808,Airport & Bernath NE,AIRPORT HWY & BERNATH PKWY,41.615449,-83.675985,,,,,,0
809,Airport & Bernath SW,AIRPORT HWY & BERNATH PKWY,41.61515,-83.676762,,,,,,0
810,Airport & Brookview NE,AIRPORT HWY & BROOKVIEW DR,41.6211,-83.639376,,,,,,0
811,Airport & Brookview NEE,AIRPORT HWY & BROOKVIEW DR,41.621756,-83.636642,,,,,,0
812,Airport & Brookview SEE,AIRPORT HWY & BROOKVIEW DR,41.621436,-83.637306,,,,,,0
813,Airport & Brookview SE,AIRPORT HWY & BROOKVIEW DR,41.621365,-83.637608,,,,,,0
814,Airport & Bronx NE,AIRPORT HWY & BRONX DR,41.629784,-83.602717,,,,,,0
815,Airport & Bronx SW,AIRPORT HWY & BRONX DR,41.629478,-83.603686,,,,,,0
816,Airport & Brysen SW,AIRPORT HWY & BRYSEN AVE,41.62614,-83.617745,,,,,,0
817,Airport & Byrne NW,AIRPORT HWY & S BYRNE RD,41.624217,-83.626525,,,,,,0
818,Airport & Byrne SW,AIRPORT HWY & S BYRNE RD,41.623961,-83.626637,,,,,,0
819,Airport & Caswell SW,AIRPORT HWY & CASWELL AVE,41.628432,-83.608161,,,,,,0
820,Airport & Colima SW,AIRPORT HWY & COLIMA DR,41.629251,-83.604669,,,,,,0
821,Airport & Colima NE,AIRPORT HWY & COLIMA DR,41.629487,-83.604008,,,,,,0
822,Airport & Durango NE,AIRPORT HWY & DURANGO DR,41.629199,-83.605299,,,,,,0
823,Airport & Durango SW,AIRPORT HWY & DURANGO DR,41.628983,-83.605835,,,,,,0
824,Airport & Elmdale NE,AIRPORT HWY & ELMDALE RD,41.626723,-83.615778,,,,,,0
825,Airport & Elmdale SE,AIRPORT HWY & ELMDALE RD,41.626912,-83.614502,,,,,,0
826,Airport & Foredale NE,AIRPORT HWY & FOREDALE AVE,41.626133,-83.61824,,,,,,0
827,Airport & Four Seasons NE,AIRPORT HWY & 4 SEASONS DR,41.617658,-83.655019,,,,,,0
828,Airport & Gawil NE,AIRPORT HWY & GAWIL AVE,41.625612,-83.620386,,,,,,0
829,Airport & Greenridge NE,AIRPORT HWY & GREENRIDGE DR,41.616662,-83.669099,,,,,,0
830,Airport & Greenridge NW,AIRPORT HWY & GREENRIDGE DR,41.616479,-83.671376,,,,,,0
831,Airport & Greystone NW,AIRPORT HWY & GREYSTONE PKWY,41.618328,-83.65125,,,,,,0
832,Airport & Greystone SW,AIRPORT HWY & GREYSTONE PKWY,41.618028,-83.651975,,,,,,0
833,Airport & Home Depot N,5820 AIRPORT HWY,41.614576,-83.680128,,,,,,0
834,Airport & Henderson NE,AIRPORT HWY & HENDERSON ST,41.628244,-83.609265,,,,,,0
835,Airport & Henderson NW,AIRPORT HWY & HENDERSON ST,41.627246,-83.613584,,,,,,0
836,Airport & Highland NW,AIRPORT HWY & HIGHLAND LN,41.62267,-83.632857,,,,,,0
837,Airport & Bernath NW- Discontinued,AIRPORT HWY & S HOLLAND SYLVANIA RD,41.615354,-83.676554,,,,,,0
838,Airport & Melvin NE,AIRPORT HWY & MELVIN DR,41.616752,-83.663142,,,,,,0
839,Airport & Nela NE,AIRPORT HWY & NELA PKWY,41.616719,-83.665664,,,,,,0
840,Airport & Nela SW,AIRPORT HWY & NELA PKWY,41.616506,-83.668126,,,,,,0
841,Airport & Pinebrook SW,AIRPORT HWY & PINEBROOK PKWY,41.617599,-83.654477,,,,,,0
842,Airport & Sugar Creek NE,AIRPORT HWY & SUGAR CREEK LN,41.619353,-83.646707,,,,,,0
843,Airport & Sugar Creek SW,AIRPORT HWY & SUGAR CREEK LN,41.619023,-83.647282,,,,,,0
844,Airport & Seymour SW,AIRPORT HWY & SEYMOUR RD,41.617187,-83.656784,,,,,,0
845,Airport & Shasta SE,AIRPORT HWY & SHASTA DR,41.63382,-83.589298,,,,,,0
846,Airport & Shea NE,AIRPORT HWY & SHEA ST,41.628856,-83.606829,,,,,,0
847,Airport & Storrs SE,AIRPORT HWY & STORRS ST,41.634809,-83.586927,,,,,,0
848,Airport & Thornwood SW,AIRPORT HWY & THORNWOOD DR,41.625441,-83.620635,,,,,,0
849,Aiport & Western SE,AIRPORT HWY & WESTERN AVE,41.635666,-83.584772,,,,,,0
850,Airport & Westgate SW,AIRPORT HWY & WESTGATE RD,41.616532,-83.660956,,,,,,0
851,Airport & Williamsdale SE,AIRPORT HWY & WILLIAMSDALE DR,41.630164,-83.600847,,,,,,0
852,Airport & Wyman NE,AIRPORT HWY & WYMAN ST,41.62487,-83.623505,,,,,,0
853,Airport & Wyman SW,AIRPORT HWY & WYMAN ST,41.624627,-83.624013,,,,,,0
854,Airport & Wenz NE,AIRPORT HWY & WENZ RD,41.620164,-83.643348,,,,,,0
855,Airport & Wenz SW,AIRPORT HWY & WENZ RD,41.619825,-83.64408,,,,,,0
856,Alexis & Acoma NE,W ALEXIS RD & ACOMA DR,41.720779,-83.629767,,,,,,0
858,Albion & Delaware NE,ALBION ST & W DELAWARE AVE,41.671476,-83.571449,,,,,,0
859,Albion & Delaware NW,ALBION ST & W DELAWARE AVE,41.671271,-83.571737,,,,,,0
860,Alexis & Bennett SW,W ALEXIS RD & BENNETT RD,41.721664,-83.557074,,,,,,0
861,Alexis & Benore SE,E ALEXIS RD & BENORE RD,41.7228,-83.514501,,,,,,0
862,Alexis & Benalex NW,W ALEXIS RD & BENALEX DR,41.721753,-83.558002,,,,,,0
863,Alexis & Davida SWW,W ALEXIS RD & DAVIDA DR,41.721548,-83.561485,,,,,,0
865,Alexis & Clover NE,W ALEXIS RD & CLOVER LN,41.720547,-83.639271,,,,,,0
866,Alexis & Clover SW,W ALEXIS RD & CLOVER LN,41.720395,-83.640376,,,,,,0
867,Alexis & Comet NE,W ALEXIS RD & COMET AVE,41.720477,-83.642918,,,,,,0
868,Alexis & Comet SW,W ALEXIS RD & COMET AVE,41.720267,-83.644303,,,,,,0
869,Alexis & Curson NE,W ALEXIS RD & CURSON DR,41.721394,-83.580962,,,,,,0
870,Alexis & Curson SW,W ALEXIS RD & CURSON DR,41.721242,-83.581609,,,,,,0
871,Alexis & Davida NE,W ALEXIS RD & DAVIDA DR,41.721753,-83.559106,,,,,,0
874,Alexis & Donnelly NE,W ALEXIS RD & DONNELLY RD,41.720826,-83.626106,,,,,,0
875,Alexis & Donnelly SW,W ALEXIS RD & DONNELLY RD,41.720645,-83.626657,,,,,,0
877,Alexis & Gage NE,W ALEXIS RD & GAGE RD,41.721514,-83.575729,,,,,,0
878,Alexis & Gage SW,W ALEXIS RD & GAGE RD,41.721334,-83.577682,,,,,,0
879,Alexis & Hagman SW,E ALEXIS RD & HAGMAN RD,41.722871,-83.511091,,,,,,0
880,Alexis & Harvest SW,W ALEXIS RD & HARVEST LN,41.720534,-83.63421,,,,,,0
882,Alexis & Home SW,W ALEXIS RD & HOME LN,41.720569,-83.632492,,,,,,0
883,Alexis & Livingston SW,W ALEXIS RD & LIVINGSTON DR,41.721187,-83.58799,,,,,,0
884,Alexis & Lewis NE,W ALEXIS RD & LEWIS AVE,41.721651,-83.564995,,,,,,0
885,Alexis & Lewis NW,W ALEXIS RD & LEWIS AVE,41.721614,-83.567541,,,,,,0
887,Alexis & Meteor NE,W ALEXIS RD & METEOR AVE,41.720644,-83.636343,,,,,,0
888,Alexis & Meteor SE,W ALEXIS RD & METEOR AVE,41.720514,-83.635549,,,,,,0
891,Alexis & Murnen SW,W ALEXIS RD & MURNEN RD,41.720607,-83.627844,,,,,,0
892,Alexis & Opportunity NE,W ALEXIS RD & OPPORTUNITY DR,41.721558,-83.569926,,,,,,0
893,Alexis & Opportunity SW,W ALEXIS RD & OPPORTUNITY DR,41.721419,-83.570849,,,,,,0
894,Alexis & Pickard NE,W ALEXIS RD & PICKARD DR,41.721322,-83.588331,,,,,,0
895,Alexis & Raddatz NE,W ALEXIS RD & RADDATZ DR,41.721717,-83.561952,,,,,,0
896,Alexis & Raddatz NW,W ALEXIS RD & RADDATZ DR,41.721668,-83.563506,,,,,,0
897,Alexis & Rambo NE,W ALEXIS RD & RAMBO LN,41.72079,-83.628629,,,,,,0
898,Alexis & Rambo SW,3000 W ALEXIS RD,41.720612,-83.629649,,,,,,0
899,Alexis & Rowland NE,W ALEXIS RD & E ROWLAND RD,41.721313,-83.595313,,,,,,0
900,Alexis & Stockbridge NE,W ALEXIS RD & STOCKBRIDGE DR,41.721903,-83.552163,,,,,,0
901,Alexis & Semoff NE,W ALEXIS RD & SEMOFF DR,41.721268,-83.599861,,,,,,0
902,Alexis & Secor W,W ALEXIS RD & SECOR RD,41.720673,-83.624489,,,,,,0
903,Alexis & Silverside NE,W ALEXIS RD & SILVERSIDE DR,41.721829,-83.555021,,,,,,0
904,Alexis & Silverside SW,W ALEXIS RD & SILVERSIDE DR,41.721627,-83.553918,,,,,,0
905,Alexis & Telegraph NE,E ALEXIS RD & TELEGRAPH RD,41.722183,-83.544633,,,,,,0
906,Alexis & Tetherwood NE,W ALEXIS RD & TETHERWOOD DR,41.721308,-83.594116,,,,,,0
907,Alexis & Tetherwood SW,W ALEXIS RD & TETHERWOOD DR,41.721172,-83.595502,,,,,,0
908,Alexis & Van Wormer NE,W ALEXIS RD & VAN WORMER DR,41.721362,-83.582769,,,,,,0
909,Alexis & Van Wormer SE,W ALEXIS RD & VAN WORMER DR,41.721186,-83.583467,,,,,,0
910,Alexis & Yarmouth SW,W ALEXIS RD & YARMOUTH AVE,41.720321,-83.642956,,,,,,0
911,Alexis & Yermo NE,W ALEXIS RD & YERMO DR,41.721297,-83.597549,,,,,,0
912,Angola & Country Creek SW,ANGOLA RD & COUNTRY CREEK LN,41.623595,-83.650132,,,,,,0
913,Angola & Emerald Run SE,ANGOLA RD & UNNAMED ST,41.623819,-83.657028,,,,,,0
914,Arlington & Atlantic SW,ARLINGTON AVE & ATLANTIC AVE,41.623261,-83.589579,,,,,,0
915,Arlington & Bowsher N,2220 ARLINGTON AVE,41.623343,-83.599773,,,,,,0
916,Arlington & Byrne NE,ARLINGTON AVE & S BYRNE RD,41.618257,-83.624456,,,,,,0
917,Arlington & Byrne SE,ARLINGTON AVE & S BYRNE RD,41.618114,-83.624366,,,,,,0
919,Arlington & Research NE,ARLINGTON AVE & E MEDICAL LOOP,41.623279,-83.606321,,,,,,0
920,Arlington & Geneva NE,ARLINGTON AVE & GENEVA AVE,41.623402,-83.584629,,,,,,0
921,Arlington & Hampton NE,ARLINGTON AVE & HAMPTON AVE,41.623413,-83.582474,,,,,,0
922,Arlington & National NE,ARLINGTON AVE & NATIONAL AVE,41.623353,-83.590182,,,,,,0
923,Arlington & National SW,ARLINGTON AVE & NATIONAL AVE,41.623251,-83.591217,,,,,,0
924,Arlington & Ogden NE,ARLINGTON AVE & OGDEN AVE,41.623413,-83.583491,,,,,,0
925,Arlington & Ogden SW,ARLINGTON AVE & OGDEN AVE,41.62329,-83.583926,,,,,,0
926,Arlington & Research SW,ARLINGTON AVE & RESEARCH DR,41.622976,-83.606948,,,,,,0
927,Arlington & Spencer SW,ARLINGTON AVE & SPENCER ST,41.62331,-83.581938,,,,,,0
928,Arlington & Toledo NE,ARLINGTON AVE & TOLEDO AVE,41.623321,-83.59456,,,,,,0
929,Arlington & Toledo SE,ARLINGTON AVE & TOLEDO AVE,41.623201,-83.594836,,,,,,0
930,Arlington & Toronto SE,ARLINGTON AVE & TORONTO AVE,41.623269,-83.585614,,,,,,0
931,Arlington & West Medical Loop NW,ARLINGTON AVE & W MEDICAL LOOP,41.618998,-83.622118,,,,,,0
932,Arlington & Wright NE,ARLINGTON AVE & WRIGHT AVE,41.623382,-83.587672,,,,,,0
933,Arlington & Wright SE,ARLINGTON AVE & WRIGHT AVE,41.623258,-83.587886,,,,,,0
934,Arlington & Wylie NE,ARLINGTON AVE & WYLIE AVE,41.62335,-83.59223,,,,,,0
935,Arlington & Wylie SW,ARLINGTON AVE & WYLIE AVE,41.623213,-83.592891,,,,,,0
936,Ashland & Bancroft NE,ASHLAND AVE & W BANCROFT ST,41.663756,-83.551609,,,,,,0
937,Ashland & Bancroft SW,ASHLAND AVE & W BANCROFT ST,41.66437,-83.55224,,,,,,0
938,Ashland & Batavia NE,ASHLAND AVE & BATAVIA ST,41.666016,-83.553315,,,,,,0
939,Ashland & Batavia SW,ASHLAND AVE & BATAVIA ST,41.667064,-83.554268,,,,,,0
940,Ashland & Columbia NE,ASHLAND AVE & COLUMBIA ST,41.664775,-83.552419,,,,,,0
941,Ashland & Columbia SW,ASHLAND AVE & COLUMBIA ST,41.666131,-83.553645,,,,,,0
942,Ashland & Fulton SW,ASHLAND AVE & FULTON ST,41.662148,-83.550506,,,,,,0
943,Ashland & Irving NE,ASHLAND AVE & IRVING ST,41.66099,-83.549503,,,,,,0
944,Ashland & Prescott SE,ASHLAND AVE & PRESCOTT ST,41.66232,-83.550511,,,,,,0
945,Ashland & WoodruffNW,ASHLAND AVE & W WOODRUFF AVE,41.660662,-83.549412,,,,,,0
946,Ashland & Woodruff SE,ASHLAND AVE & W WOODRUFF AVE,41.660227,-83.548915,,,,,,0
947,Ashland & Winthrop SE,ASHLAND AVE & WINTHROP ST,41.667515,-83.554447,,,,,,0
948,Auburn & Baxter SE,AUBURN AVE & BAXTER ST,41.66918,-83.579081,,,,,,0
949,Auburn & Delaware SE,AUBURN AVE & W DELAWARE AVE,41.670563,-83.579213,,,,,,0
950,Auburn & Macomber NW,AUBURN AVE & MACOMBER ST,41.66637,-83.57916,,,,,,0
951,Ayers & Delaware NW,AYERS AVE & W DELAWARE AVE,41.671004,-83.574482,,,,,,0
952,Ayers & Palmetto NW,AYERS AVE & PALMETTO AVE,41.672724,-83.574545,,,,,,0
953,Bancroft & Audubon SW,W BANCROFT ST & AUDUBON PL,41.662825,-83.621475,,,,,,0
954,Bancroft & Auburn NE,W BANCROFT ST & AUBURN AVE,41.663657,-83.57573,,,,,,0
955,Bancroft & Auburn SW,W BANCROFT ST & AUBURN AVE,41.663502,-83.579346,,,,,,0
956,Bancroft & Cheltenham NE,2000 W BANCROFT ST,41.663302,-83.611351,,,,,,0
957,Bancroft & Chestnut NE,E BANCROFT ST & CHESTNUT ST,41.667837,-83.530558,,,,,,0
958,Bancroft & Chestnut SE,E BANCROFT ST & CHESTNUT ST,41.667806,-83.530466,,,,,,0
959,Bancroft & Clinton NE,W BANCROFT ST & CLINTON ST,41.663546,-83.583911,,,,,,0
960,Bancroft & Clinton SW,W BANCROFT ST & CLINTON ST,41.66344,-83.584812,,,,,,0
961,Bancroft & Detroit NE,W BANCROFT ST & N DETROIT AVE,41.663762,-83.570043,,,,,,0
962,Bancroft & Detroit SW,W BANCROFT ST & N DETROIT AVE,41.663582,-83.571888,,,,,,0
963,Bancroft & Dundas NE,W BANCROFT ST & DUNDAS RD,41.662641,-83.642058,,,,,,0
965,Bancroft & Evansdale NE,W BANCROFT ST & EVANSDALE AVE,41.663337,-83.598928,,,,,,0
966,Bancroft & Evansdale SW,W BANCROFT ST & EVANSDALE AVE,41.663247,-83.600984,,,,,,0
967,Bancroft & Goddard SW,W BANCROFT ST & GODDARD RD,41.662984,-83.613826,,,,,,0
968,Bancroft & Greenway NW,W BANCROFT ST & WYNDHURST RD,41.663308,-83.603629,,,,,,0
969,Bancroft & Greenway SW,W BANCROFT ST & WYNDHURST RD,41.663211,-83.604262,,,,,,0
970,Bancroft & Hawthorne NE,W BANCROFT ST & HAWTHORNE ST,41.663615,-83.579454,,,,,,0
971,Bancroft & Irvington NE,W BANCROFT ST & IRVINGTON PL,41.663575,-83.581881,,,,,,0
972,Bancroft & Isherwood NE,W BANCROFT ST & ISHERWOOD AVE,41.663503,-83.586048,,,,,,0
973,Bancroft & Lagrange NW,E BANCROFT ST & LAGRANGE ST,41.66635,-83.533916,,,,,,0
974,Bancroft & Lagrange SW,E BANCROFT ST & LAGRANGE ST,41.666233,-83.533844,,,,,,0
975,Bancroft & Lorle NE,W BANCROFT ST & LORLE ST,41.663727,-83.571795,,,,,,0
976,Bancroft & Miles SW,W BANCROFT ST & MILES AVE,41.663507,-83.581713,,,,,,0
977,Bancroft & Meadowwood NE,W BANCROFT ST & MEADOWWOOD DR,41.663155,-83.614766,,,,,,0
978,Bancroft & Middlesex NW,W BANCROFT ST & MIDDLESEX DR,41.663056,-83.618303,,,,,,0
979,Bancroft & Middlesex SW,W BANCROFT ST & MIDDLESEX DR,41.662933,-83.61875,,,,,,0
980,Bancroft & Pemberton NE,W BANCROFT ST & PEMBERTON DR,41.663023,-83.619355,,,,,,0
981,Bancroft & Perth NE,W BANCROFT ST & PERTH ST,41.663331,-83.601258,,,,,,0
982,Bancroft & Parkside NE DISCONTINUED,W BANCROFT ST & PARKSIDE BLVD,41.663409,-83.593761,,,,,,0
983,Bancroft & Parkwood NE,W BANCROFT ST & PARKWOOD AVE,41.663972,-83.556831,,,,,,0
984,Bancroft & Parkwood SW,W BANCROFT ST & PARKWOOD AVE,41.66388,-83.55753,,,,,,0
985,Bancroft & Robinwood NE,W BANCROFT ST & ROBINWOOD AVE,41.663898,-83.560272,,,,,,0
986,Bancroft & Robinwood SW,W BANCROFT ST & ROBINWOOD AVE,41.663732,-83.560947,,,,,,0
987,Bancroft & Richmond SW,W BANCROFT ST & RICHMOND RD,41.663264,-83.592467,,,,,,0
988,Bancroft & Rosewood NE,W BANCROFT ST & ROSEWOOD AVE,41.663794,-83.566283,,,,,,0
989,Bancroft & Rosewood SW,W BANCROFT ST & ROSEWOOD AVE,41.663657,-83.56719,,,,,,0
990,Bancroft & Secor NE,W BANCROFT ST & SECOR RD,41.662932,-83.620605,,,,,,0
991,Bancroft & Shenandoah SW,W BANCROFT ST & SHENANDOAH RD,41.663304,-83.590362,,,,,,0
992,Bancroft & Sylvan NE,W BANCROFT ST & SYLVAN AVE,41.663694,-83.572856,,,,,,0
993,Bancroft & Sylvan SW,W BANCROFT ST & SYLVAN AVE,41.663584,-83.573673,,,,,,0
994,Bancroft & Torrey Hill NE,W BANCROFT ST & TORREY HILL DR,41.663457,-83.590838,,,,,,0
995,Bancroft & UT Hall,W BANCROFT ST & CAMPUS RD,41.662882,-83.616556,,,,,,0
996,Bancroft & Walnut NE,E BANCROFT ST & WALNUT ST,41.665259,-83.536349,,,,,,0
997,Bancroft & Walnut SW,E BANCROFT ST & WALNUT ST,41.664697,-83.537003,,,,,,0
998,Bancroft & Westwood NE,2000 W BANCROFT ST,41.663253,-83.607691,,,,,,0
999,Bancroft & Westwood SE,W BANCROFT ST & N WESTWOOD AVE,41.663157,-83.607614,,,,,,0
1001,Bancroft & Whitehall SW,W BANCROFT ST & WHITEHALL RD,41.662098,-83.632768,,,,,,0
1002,Broadway & Alden SW,BROADWAY ST & ALDEN CT,41.621746,-83.573876,,,,,,0
1003,Broadway & Amherst SW,BROADWAY ST & AMHERST DR,41.615339,-83.582284,,,,,,0
1004,Broadway & Balfe NE,BROADWAY ST & BALFE ST,41.627666,-83.561132,,,,,,0
1005,Broadway & Colburn NW,BROADWAY ST & COLBURN ST,41.630043,-83.557724,,,,,,0
1006,Broadway & Colburn SE,BROADWAY ST & COLBURN ST,41.629533,-83.558315,,,,,,0
1007,Broadway & Crittenden NW,BROADWAY ST & CRITTENDEN AVE,41.633559,-83.552754,,,,,,0
1008,Broadway & Courtland SE,BROADWAY ST & COURTLAND AVE,41.636131,-83.548735,,,,,,0
1009,Broadway & Field SE,BROADWAY ST & FIELD AVE,41.632546,-83.553944,,,,,,0
1010,Broadway & Foraker NW,BROADWAY ST & SALEM ST,41.621499,-83.574389,,,,,,0
1011,Broadway & Hawley NE,BROADWAY ST & S HAWLEY ST,41.62472,-83.567369,,,,,,0
1012,Broadway & Hawley SW,BROADWAY ST & S HAWLEY ST,41.624581,-83.56757,,,,,,0
1013,Broadway & Harding SW,BROADWAY ST & HARDING DR,41.626626,-83.56312,,,,,,0
1014,Broadway & Maumee NE,BROADWAY ST & JERVIS ST,41.63557,-83.549882,,,,,,0
1015,Broadway & Knower NW,BROADWAY ST & KNOWER ST,41.631793,-83.555275,,,,,,0
1016,Broadway & Knower SE,BROADWAY ST & KNOWER ST,41.631455,-83.555497,,,,,,0
1017,Broadway & Knapp SE,BROADWAY ST & KNAPP ST,41.640167,-83.543013,,,,,,0
1018,Broadway & Logan NW,BROADWAY ST & LOGAN ST,41.639042,-83.544935,,,,,,0
1019,Broadway & Logan SE,BROADWAY ST & LOGAN ST,41.638548,-83.545347,,,,,,0
1020,Broadway & Maumee SW,BROADWAY ST & MAUMEE AVE,41.634761,-83.550791,,,,,,0
1021,Broadway & Newton NW,BROADWAY ST & NEWTON ST,41.639939,-83.543627,,,,,,0
1022,Broadway & Newton SE,BROADWAY ST & NEWTON ST,41.6393,-83.54428,,,,,,0
1023,Broadway & Orchard NE,BROADWAY ST & ORCHARD ST,41.628128,-83.560227,,,,,,0
1024,Broadway & Princeton NE,BROADWAY ST & PRINCETON DR,41.614694,-83.583365,,,,,,0
1025,Broadway & Princeton SW,BROADWAY ST & PRINCETON DR,41.614314,-83.583598,,,,,,0
1026,Broadway & Prouty NW,BROADWAY ST & PROUTY AVE,41.628979,-83.559233,,,,,,0
1027,Broadway & South NW,BROADWAY ST & SOUTH AVE,41.631248,-83.556,,,,,,0
1028,Broadway & South SE,BROADWAY ST & SOUTH AVE,41.630592,-83.556702,,,,,,0
1029,Broadway & Stebbins NE,BROADWAY ST & STEBBINS ST,41.626081,-83.564537,,,,,,0
1030,Broadway & Stebbins SW,BROADWAY ST & STEBBINS ST,41.625638,-83.565132,,,,,,0
1031,Broadway & St James NE,BROADWAY ST & ST JAMES CT,41.619778,-83.576691,,,,,,0
1032,Broadway & St James SW,BROADWAY ST & ST JAMES CT,41.619285,-83.577191,,,,,,0
1033,Broadway & Shadowlawn NW,BROADWAY ST & SHADOWLAWN DR,41.618019,-83.579002,,,,,,0
1034,Broadway & University NE,BROADWAY ST & UNIVERSITY BLVD,41.61538,-83.582469,,,,,,0
1035,Broadway & Waterworks NW,BROADWAY ST & WATERWORKS DR,41.623279,-83.570769,,,,,,0
1036,Broadway & Waterworks SW,BROADWAY ST & WATERWORKS DR,41.623191,-83.570508,,,,,,0
1037,Broadway & Yale NE,BROADWAY ST & YALE DR,41.613925,-83.584284,,,,,,0
1038,Broadway & Yale SW,BROADWAY ST & YALE DR,41.613431,-83.584782,,,,,,0
1039,Berdan & Almeda NE,BERDAN AVE & ALMEDA DR,41.688833,-83.580618,,,,,,0
1040,Berdan & Almeda SW,BERDAN AVE & ALMEDA DR,41.688739,-83.581573,,,,,,0
1041,Berdan & Bellevue SE,BERDAN AVE & BELLEVUE RD,41.688971,-83.596646,,,,,,0
1042,Berdan & Drexel NE,BERDAN AVE & DREXEL DR,41.688986,-83.567677,,,,,,0
1043,Berdan & Hoiles NE,BERDAN AVE & HOILES AVE,41.688936,-83.57396,,,,,,0
1044,Berdan & Homewood SW,BERDAN AVE & HOMEWOOD AVE,41.688823,-83.574079,,,,,,0
1045,Berdan & Jackman NW,BERDAN AVE & JACKMAN RD,41.688767,-83.585118,,,,,,0
1046,Berdan & Jackman SW,BERDAN AVE & JACKMAN RD,41.688667,-83.585163,,,,,,0
1047,Berdan & Kelly NE,BERDAN AVE & KELLEY AVE,41.688684,-83.59171,,,,,,0
1048,Berdan & Kelly SW,BERDAN AVE & KELLEY AVE,41.688627,-83.592372,,,,,,0
1049,Berdan & Kershaw NE,BERDAN AVE & KERSHAW AVE,41.689018,-83.60091,,,,,,0
1050,Berdan & Kershaw SW,BERDAN AVE & KERSHAW AVE,41.688938,-83.601605,,,,,,0
1051,Berdan & Leybourn NE,BERDAN AVE & LEYBOURN AVE,41.688854,-83.57866,,,,,,0
1052,Berdan & Leybourn SW,BERDAN AVE & LEYBOURN AVE,41.688757,-83.579436,,,,,,0
1053,Berdan & Martha NE,BERDAN AVE & MARTHA AVE,41.689084,-83.565217,,,,,,0
1054,Berdan & Martha SW,BERDAN AVE & MARTHA AVE,41.688964,-83.566164,,,,,,0
1055,Berdan & Matlack NE,BERDAN AVE & MATLACK AVE,41.688752,-83.586836,,,,,,0
1056,Berdan & Matlack SW,BERDAN AVE & MATLACK AVE,41.688652,-83.587382,,,,,,0
1057,Bennett & Alexis SE,BENNETT RD & W ALEXIS RD,41.721555,-83.556837,,,,,,0
1058,Bennett & Branbury NW,BENNETT RD & BRANBURY RD,41.714258,-83.556706,,,,,,0
1059,Bennett & Branbury SE,BENNETT RD & BRANBURY RD,41.713465,-83.556591,,,,,,0
1060,Bennett & Boxhall SE,BENNETT RD & BOXHALL RD,41.712545,-83.556583,,,,,,0
1061,Bennett & California NW,BENNETT RD & CALIFORNIA BLVD,41.703523,-83.556457,,,,,,0
1064,Bennett & Clara NE,BENNETT RD & CLARA AVE,41.695724,-83.555989,,,,,,0
1065,Bennett & Clara NW,BENNETT RD & CLARA AVE,41.695863,-83.55615,,,,,,0
1066,Bennett & Clara SE,BENNETT RD & CLARA AVE,41.694846,-83.555994,,,,,,0
1067,Bennett & Cloverdale NW,BENNETT RD & CLOVERDALE RD,41.710679,-83.556721,,,,,,0
1068,Bennett & Coeli NW,BENNETT RD & COELI DR,41.720527,-83.556929,,,,,,0
1069,Bennett & Coeli NE,BENNETT RD & COELI DR,41.720627,-83.556772,,,,,,0
1071,Bennett & Dryden NW,BENNETT RD & DRYDEN DR,41.698915,-83.556261,,,,,,0
1072,Bennett & Dryden SE,BENNETT RD & DRYDEN DR,41.69658,-83.556047,,,,,,0
1073,Bennett & Gramercy SE,BENNETT RD & W GRAMERCY AVE,41.703882,-83.556343,,,,,,0
1074,Bennett & Laskey NW,BENNETT RD & W LASKEY RD,41.707738,-83.556611,,,,,,0
1075,Bennett & Mayfair NW,BENNETT RD & MAYFAIR BLVD,41.712088,-83.556671,,,,,,0
1076,Bennett & Mayfair SE,BENNETT RD & MAYFAIR BLVD,41.711497,-83.556567,,,,,,0
1077,Bennett & Northdale NW,BENNETT RD & NORTHDALE DR,41.717099,-83.556788,,,,,,0
1078,Bennett & Northdale SE,BENNETT RD & NORTHDALE DR,41.716625,-83.556689,,,,,,0
1079,Bennett & Pasadena NW,BENNETT RD & PASADENA BLVD,41.702709,-83.556445,,,,,,0
1080,Bennett & Pasadena SE,BENNETT RD & PASADENA BLVD,41.702183,-83.556272,,,,,,0
1081,Bennett & Poinsetta NW,BENNETT RD & W POINSETTA AVE,41.705625,-83.556521,,,,,,0
1082,Bennett & Poinsetta SE,BENNETT RD & W POINSETTA AVE,41.704733,-83.556381,,,,,,0
1083,Bennett & Regina NW,BENNETT RD & REGINA PKWY,41.715894,-83.556764,,,,,,0
1084,Bennett & Sandralee NW,BENNETT RD & SANDRALEE DR,41.713375,-83.556728,,,,,,0
1085,Bennett & Southdale SE,BENNETT RD & SOUTHDALE RD,41.71531,-83.556646,,,,,,0
1086,Bennett & Sylvania NE,BENNETT RD & W SYLVANIA AVE,41.693419,-83.555925,,,,,,0
1087,Bennett & Sylvania NW,BENNETT RD & W SYLVANIA AVE,41.69422,-83.556102,,,,,,0
1088,Bennett & Waggoner NW,BENNETT RD & WAGGONER BLVD,41.700661,-83.556379,,,,,,0
1089,Bennett & Waggoner SE,BENNETT RD & WAGGONER BLVD,41.700744,-83.556235,,,,,,0
1090,Bennett & Waybridge SE,BENNETT RD & WAYBRIDGE RD,41.710397,-83.556551,,,,,,0
1091,Berdan & Revere NE,BERDAN AVE & REVERE DR,41.688885,-83.576419,,,,,,0
1092,Berdan & RevereSW,BERDAN AVE & REVERE DR,41.688789,-83.577176,,,,,,0
1093,Berdan & Roanoke NE,BERDAN AVE & ROANOKE RD,41.689041,-83.598399,,,,,,0
1094,Berdan & Upton NW,BERDAN AVE & UPTON AVE,41.688696,-83.59031,,,,,,0
1095,Berdan & Upton SW,BERDAN AVE & UPTON AVE,41.688627,-83.589674,,,,,,0
1096,Detroit & Glanzman,S DETROIT AVE & GLANZMAN RD,41.601124,-83.610415,,,,,,0
1097,Berdan & Willys NE,BERDAN AVE & WILLYS PKWY,41.688983,-83.571042,,,,,,0
1098,Berdan & Willys SW,BERDAN AVE & WILLYS PKWY,41.68885,-83.571969,,,,,,0
1099,Brooke Park E,BROOKE PARK DR,41.728861,-83.577647,,,,,,0
1100,Brooke Park & Jackman NE,BROOKE PARK DR & JACKMAN RD,41.728924,-83.584488,,,,,,0
1101,Brooke Park & Jackman SE,BROOKE PARK DR & JACKMAN RD,41.728848,-83.584629,,,,,,0
1102,Brooke Park & Park Lane NE,BROOKE PARK DR & PARK LANE RD,41.72888,-83.579226,,,,,,0
1103,Brooke Park & Park Lane NW,BROOKE PARK DR & PARK LANE RD,41.72877,-83.581747,,,,,,0
1104,Brooke Park & Park Lane SE,BROOKE PARK DR & PARK LANE RD,41.728785,-83.579671,,,,,,0
1105,Brooke Park & Park Lane SW,BROOKE PARK DR & PARK LANE RD,41.728703,-83.581723,,,,,,0
1106,Brint & Allen NE,BRINT RD & ALLEN ST,41.705032,-83.700646,,,,,,0
1107,Brint & Allen NW,BRINT RD & ALLEN ST,41.704953,-83.702483,,,,,,0
1108,Brint & Wickford SE,BRINT RD & WICKFORD DR E,41.704886,-83.701415,,,,,,0
1109,Byrne & Airport SE,S BYRNE RD & AIRPORT HWY,41.624078,-83.625779,,,,,,0
1110,Byrne & Arlington NW,S BYRNE RD & ARLINGTON AVE,41.621466,-83.625948,,,,,,0
1111,Byrne & Arlington SE,S BYRNE RD & ARLINGTON AVE,41.617557,-83.625725,,,,,,0
1112,Byrne & Avondale NE,N BYRNE RD & AVONDALE AVE,41.649454,-83.625858,,,,,,0
1113,Byrne & Avondale NW,N BYRNE RD & AVONDALE AVE,41.649552,-83.626098,,,,,,0
1114,Byrne & Blairmont SE,S BYRNE RD & BLAIRMONT AVE,41.605494,-83.625686,,,,,,0
1115,Byrne & Brenda SE,S BYRNE RD & BRENDA DR,41.612957,-83.625658,,,,,,0
1116,Byrne & Camille SE,S BYRNE RD & CAMILLE DR,41.614831,-83.625683,,,,,,0
1117,Byrne & Colby SW,S BYRNE RD & COLBY DR,41.591196,-83.616683,,,,,,0
1118,Byrne & Cragmoor NW,S BYRNE RD & CRAGMOOR AVE,41.604677,-83.625844,,,,,,0
1119,Byrne & Cragmoor SE,S BYRNE RD & CRAGMOOR AVE,41.604445,-83.62567,,,,,,0
1120,Byrne & Claudia NW,S BYRNE RD & CLAUDIA DR,41.61636,-83.625897,,,,,,0
1121,Byrne & Copland NW,S BYRNE RD & COPLAND BLVD,41.594292,-83.619203,,,,,,0
1122,Byrne & Denise NW,S BYRNE RD & DENISE DR,41.614696,-83.625888,,,,,,0
1123,Byrne & Devonshire NW,S BYRNE RD & DEVONSHIRE RD,41.58991,-83.615663,,,,,,0
1124,Byrne & Dorr SE,N BYRNE RD & DORR ST,41.651703,-83.625862,,,,,,0
1125,Byrne & Gibraltar Heights   NW,S BYRNE RD & GIBRALTAR HEIGHTS DR,41.623084,-83.625959,,,,,,0
1126,Byrne & Gibraltar Heights SE,S BYRNE RD & GIBRALTAR HEIGHTS DR,41.621764,-83.625669,,,,,,0
1127,Byrne & Glendale NW,S BYRNE RD & GLENDALE AVE,41.612919,-83.625918,,,,,,0
1128,Byrne & Glendale SE,S BYRNE RD & GLENDALE AVE,41.610084,-83.625661,,,,,,0
1129,Byrne & Glendale SW,S BYRNE RD & GLENDALE AVE,41.61171,-83.625887,,,,,,0
1130,Byrne & Glanzman SE,S BYRNE RD & GLANZMAN RD,41.600992,-83.62443,,,,,,0
1131,Byrne & Heatherdowns NW,S BYRNE RD & HEATHERDOWNS BLVD,41.602942,-83.625845,,,,,,0
1132,Byrne & Hill NE,S BYRNE RD & HILL AVE,41.63947,-83.625913,,,,,,0
1133,Byrne & Hill NW,S BYRNE RD & HILL AVE,41.638644,-83.626105,,,,,,0
1134,Byrne & Hill SE,S BYRNE RD & HILL AVE,41.637619,-83.625864,,,,,,0
1135,Byrne & Hill SW,S BYRNE RD & HILL AVE,41.637079,-83.626047,,,,,,0
1136,Byrne & Hilltop NW,N BYRNE RD & HILLTOP BLVD,41.643597,-83.626059,,,,,,0
1137,Byrne & Hilltop SE,N BYRNE RD & HILLTOP BLVD,41.642813,-83.625869,,,,,,0
1138,Byrne & Inverness NW,N BYRNE RD & INVERNESS AVE,41.652248,-83.626042,,,,,,0
1139,Byrne & Mercer NW,S BYRNE RD & MERCER ST,41.627447,-83.625962,,,,,,0
1140,Byrne & Mercer SE,S BYRNE RD & MERCER ST,41.627302,-83.62578,,,,,,0
1141,Byrne & Nebraska NW,N BYRNE RD & NEBRASKA AVE,41.646007,-83.626049,,,,,,0
1142,Byrne & Ravenwood SE,S BYRNE RD & RAVENWOOD BLVD,41.603054,-83.62566,,,,,,0
1143,Byrne & Schmeider NW,S BYRNE RD & SCHNEIDER RD,41.610365,-83.625857,,,,,,0
1144,Byrne & South NE,S BYRNE RD & SOUTH AVE,41.635181,-83.625842,,,,,,0
1145,Byrne & South NW,S BYRNE RD & SOUTH AVE,41.635455,-83.626015,,,,,,0
1146,Byrne & Stengel NW,S BYRNE RD & STENGEL AVE,41.596429,-83.620954,,,,,,0
1147,Byrne & Stengel SE,S BYRNE RD & STENGEL AVE,41.595895,-83.620302,,,,,,0
1148,Byrne & Tedrow SE,S BYRNE RD & TEDROW RD,41.597747,-83.621812,,,,,,0
1149,Byrne & Willow Run NE,N BYRNE RD & WILLOW RUN DR,41.64513,-83.625842,,,,,,0
1150,Canton & Jackson NW,CANTON AVE & JACKSON ST,41.656859,-83.537718,,,,,,0
1151,Canton & Southard SE,CANTON AVE & SOUTHARD AVE,41.658532,-83.537654,,,,,,0
1152,Canton & Southard SW,CANTON AVE & SOUTHARD AVE,41.658515,-83.537781,,,,,,0
1155,Central & Albion NW,W CENTRAL AVE & ALBION ST,41.678193,-83.568292,,,,,,0
1156,Central & Albion SW,W CENTRAL AVE & ALBION ST,41.678072,-83.567774,,,,,,0
1157,Central & Algonquin NE,W CENTRAL AVE & ALGONQUIN PKWY,41.677776,-83.600163,,,,,,0
1158,Central & Algonquin SW,W CENTRAL AVE & ALGONQUIN PKWY,41.677622,-83.600602,,,,,,0
1159,Central & Alisdale NE,W CENTRAL AVE & ALISDALE DR,41.677645,-83.607911,,,,,,0
1160,Central & Alisdale SW,W CENTRAL AVE & ALISDALE DR,41.677501,-83.608769,,,,,,0
1161,Central & Auburn NE,W CENTRAL AVE & AUBURN AVE,41.677978,-83.579332,,,,,,0
1162,Central & Auburn SW,W CENTRAL AVE & AUBURN AVE,41.67789,-83.579806,,,,,,0
1163,Central & Barrington NE,W CENTRAL AVE & BARRINGTON DR,41.677494,-83.617351,,,,,,0
1164,Central & Briar Cliff NE,W CENTRAL AVE & BRIAR CLIFF RD,41.677859,-83.592332,,,,,,0
1165,Central & Briar Cliff SW,W CENTRAL AVE & BRIAR CLIFF RD,41.677683,-83.592965,,,,,,0
1166,Central & Cheltenham NE,W CENTRAL AVE & CHELTENHAM RD,41.677578,-83.612275,,,,,,0
1167,Central & Cheltenham SW,W CENTRAL AVE & CHELTENHAM RD,41.67743,-83.613388,,,,,,0
1168,Central & Chollett NE,W CENTRAL AVE & CHOLLETT DR,41.677601,-83.61001,,,,,,0
1169,Central & Chollett SW,W CENTRAL AVE & CHOLLETT DR,41.677413,-83.610379,,,,,,0
1170,Central & Chestnut NE,E CENTRAL AVE & CHESTNUT ST,41.678832,-83.533873,,,,,,0
1171,Central & Collingwood NW,W CENTRAL AVE & COLLINGWOOD BLVD,41.678455,-83.555799,,,,,,0
1172,Central & Collingwood SW,W CENTRAL AVE & COLLINGWOOD BLVD,41.678334,-83.555778,,,,,,0
1173,Central & Central Park NE,W CENTRAL AVE & CENTRAL PARK W,41.675552,-83.700287,,,,,,0
1174,Central & Central Park SW,W CENTRAL AVE & CENTRAL PARK W,41.675275,-83.700706,,,,,,0
1175,Central & Detroit SW,W CENTRAL AVE & N DETROIT AVE,41.678158,-83.562575,,,,,,0
1176,Central & Douglas SW,W CENTRAL AVE & DOUGLAS RD,41.677554,-83.605714,,,,,,0
1178,Central & Densmore SW,W CENTRAL AVE & DENSMORE DR,41.677328,-83.62149,,,,,,0
1179,Central & E Lincolnshire NE,W CENTRAL AVE & E LINCOLNSHIRE BLVD,41.677372,-83.630005,,,,,,0
1180,Central & Exmoor NW,W CENTRAL AVE & EXMOOR,41.676866,-83.664793,,,,,,0
1181,Central & Exmoor SE,W CENTRAL AVE & EXMOOR,41.676755,-83.663957,,,,,,0
1182,Central Garage N,W CENTRAL AVE & JEEP PKWY,41.678191,-83.570079,,,,,,0
1183,Central Garage S,W CENTRAL AVE & JEEP PKWY,41.678043,-83.569956,,,,,,0
1184,Central & Gunckel SW,W CENTRAL AVE & GUNCKEL BLVD,41.677611,-83.599433,,,,,,0
1185,Central & Glenwood NE,W CENTRAL AVE & GLENWOOD AVE,41.678299,-83.562489,,,,,,0
1186,Central & Higgins NW,E CENTRAL AVE & HIGGINS ST,41.678945,-83.529494,,,,,,0
1187,Central & Higgins SW,E CENTRAL AVE & HIGGINS ST,41.678897,-83.529077,,,,,,0
1188,Central & Hardale NE,W CENTRAL AVE & HARDALE BLVD,41.677203,-83.638671,,,,,,0
1190,Central & Isha Laye NE,W CENTRAL AVE & ISHA LAYE WAY,41.677311,-83.63399,,,,,,0
1191,Central & Isha Laye SW,W CENTRAL AVE & ISHA LAYE WAY,41.677145,-83.634335,,,,,,0
1192,Central & Indian NW,W CENTRAL AVE & INDIAN RD,41.67714,-83.651507,,,,,,0
1193,Central & Isabella NE,W CENTRAL AVE & ISABELLA ST,41.677943,-83.582912,,,,,,0
1194,Central & Isabella SW,W CENTRAL AVE & ISABELLA ST,41.67784,-83.583604,,,,,,0
1195,Central & Kimball NE,W CENTRAL AVE & KIMBALL AVE,41.678388,-83.557926,,,,,,0
1196,Central & Letchworth NW,W CENTRAL AVE & LETCHWORTH PKWY,41.677734,-83.604262,,,,,,0
1197,Central & Marsrow NW,W CENTRAL AVE & MARSROW AVE,41.67619,-83.686735,,,,,,0
1198,Central & Marsrow SW,W CENTRAL AVE & MARSROW AVE,41.675981,-83.687221,,,,,,0
1199,Central & Manchester NE,W CENTRAL AVE & MANCHESTER BLVD,41.677418,-83.625895,,,,,,0
1200,Central & McCord NW,W CENTRAL AVE & N MCCORD RD,41.675215,-83.704155,,,,,,0
1201,Central & McCord SE,W CENTRAL AVE & N MCCORD RD,41.675222,-83.701978,,,,,,0
1202,Central & Middlesex NW,W CENTRAL AVE & MIDDLESEX DR,41.677473,-83.618863,,,,,,0
1203,Central & Middlesex SW,W CENTRAL AVE & MIDDLESEX DR,41.677358,-83.618854,,,,,,0
1205,Central & Monroe NE,W CENTRAL AVE & MONROE ST,41.677914,-83.596419,,,,,,0
1206,Central & Monroe SE,W CENTRAL AVE & MONROE ST,41.677645,-83.596576,,,,,,0
1207,Central & Mulberry NE,E CENTRAL AVE & MULBERRY ST,41.67894,-83.5311,,,,,,0
1208,Central & Mulberry SW,E CENTRAL AVE & MULBERRY ST,41.678845,-83.531483,,,,,,0
1209,Central & Meadowwood SW,W CENTRAL AVE & MEADOWWOOD DR,41.6774,-83.616213,,,,,,0
1210,Central & North Cove NW,W CENTRAL AVE & N COVE BLVD,41.678096,-83.57567,,,,,,0
1211,Central & North Cove SW,W CENTRAL AVE & N COVE BLVD,41.677982,-83.575673,,,,,,0
1212,Central & Pembroke SW,W CENTRAL AVE & PEMBROKE RD,41.676977,-83.640264,,,,,,0
1213,Central & Powhattan SW,W CENTRAL AVE & POWHATTAN PKWY,41.677586,-83.601934,,,,,,0
1214,Central & Parkwood SW,W CENTRAL AVE & PARKWOOD AVE,41.678273,-83.557707,,,,,,0
1215,Central & Republic NW,W CENTRAL AVE & N REPUBLIC BLVD,41.676629,-83.675312,,,,,,0
1216,Central & Republic SW,W CENTRAL AVE & S REPUBLIC BLVD,41.676383,-83.674734,,,,,,0
1217,Central & Sherbrooke NE,W CENTRAL AVE & SHERBROOKE RD,41.677753,-83.602763,,,,,,0
1218,Central & Sherbrooke SW,W CENTRAL AVE & SHERBROOKE RD,41.677602,-83.60381,,,,,,0
1219,Central & Scarborough NW,W CENTRAL AVE & SCARSBOROUGH RD,41.677116,-83.645955,,,,,,0
1220,Central & Secor NE,W CENTRAL AVE & SECOR RD,41.677481,-83.621374,,,,,,0
1221,Central & Sequoia SW,W CENTRAL AVE,41.674115,-83.709389,,,,,,0
1222,Central & Secor SW,W CENTRAL AVE & SECOR RD,41.677236,-83.626327,,,,,,0
1223,Central & Stoneleigh SW,W CENTRAL AVE & STONELEIGH DR,41.673594,-83.714187,,,,,,0
1224,Central & Strauss SW,W CENTRAL AVE & STRAUSS AVE,41.677077,-83.637067,,,,,,0
1226,Central & Stickney SW,E CENTRAL AVE & STICKNEY AVE,41.678929,-83.527292,,,,,,0
1227,Central & Scottwood NE,W CENTRAL AVE & SCOTTWOOD AVE,41.678361,-83.559768,,,,,,0
1228,Central & Scottwood SW,W CENTRAL AVE & SCOTTWOOD AVE,41.678135,-83.56008,,,,,,0
1229,Central & Talmadge NE,W CENTRAL AVE & TALMADGE RD,41.677105,-83.643368,,,,,,0
1230,Central & Talmadge SE,W CENTRAL AVE & TALMADGE RD,41.676971,-83.642957,,,,,,0
1231,Central & Upton NW,W CENTRAL AVE & UPTON AVE,41.677893,-83.590677,,,,,,0
1232,Central & Upton SW,W CENTRAL AVE & UPTON AVE,41.677685,-83.590918,,,,,,0
1233,Central & Woodley NE,W CENTRAL AVE & WOODLEY RD,41.677253,-83.63648,,,,,,0
1234,Central & W Lincolnshire NE,W CENTRAL AVE & W LINCOLNSHIRE BLVD,41.677338,-83.631624,,,,,,0
1235,Central & W Lincolnshire SW,W CENTRAL AVE & W LINCOLNSHIRE BLVD,41.677212,-83.631974,,,,,,0
1236,Central & Wicklow SW,W CENTRAL AVE & WICKLOW RD,41.677212,-83.629544,,,,,,0
1237,Cherry & Arcadia NW,CHERRY ST & ARCADIA AVE,41.680667,-83.552152,,,,,,0
1238,Cherry & Bancroft NW,CHERRY ST & E BANCROFT ST,41.664834,-83.538727,,,,,,0
1239,Cherry & Bancroft SE,CHERRY ST & E BANCROFT ST,41.663748,-83.537593,,,,,,0
1240,Cherry & Bronson SE,CHERRY ST & BRONSON PL,41.677205,-83.548883,,,,,,0
1241,Cherry & Cambridge NW,CHERRY ST & CAMBRIDGE ST,41.681748,-83.553133,,,,,,0
1242,Cherry & Condley SE,CHERRY ST & CONDLEY DR,41.682009,-83.553235,,,,,,0
1243,Cherry & Central NW,CHERRY ST & W CENTRAL AVE,41.6788,-83.550532,,,,,,0
1244,Cherry & Central SW,CHERRY ST & W CENTRAL AVE,41.676678,-83.548744,,,,,,0
1245,Cherry & Collingwood SE,CHERRY ST & RICHARDSON DR,41.683469,-83.554529,,,,,,0
1246,Cherry & Collingwood SW,CHERRY ST & RICHARDSON DR,41.68344,-83.554752,,,,,,0
1247,Cherry & Delaware SE,CHERRY ST & E DELAWARE AVE,41.671213,-83.543774,,,,,,0
1248,Cherry & Delaware SW,CHERRY ST & E DELAWARE AVE,41.671016,-83.543959,,,,,,0
1249,Cherry & Erie NE,CHERRY ST & N ERIE ST,41.658318,-83.532833,,,,,,0
1250,Cherry & Erie NW,CHERRY ST & N ERIE ST,41.658271,-83.533196,,,,,,0
1251,Cherry & Franklin NW,CHERRY ST & FRANKLIN AVE,41.672794,-83.545502,,,,,,0
1252,Cherry & George NW,CHERRY ST & GEORGE ST,41.663029,-83.53723,,,,,,0
1253,Cherry & Huron NW,CHERRY ST & N HURON ST,41.656935,-83.532038,,,,,,0
1254,Cherry & Huron SE,CHERRY ST & N HURON ST,41.65656,-83.531344,,,,,,0
1255,Cherry & Islington NW,CHERRY ST & ISLINGTON ST,41.674797,-83.54722,,,,,,0
1256,Cherry & Islington SE,CHERRY ST & ISLINGTON ST,41.674496,-83.546611,,,,,,0
1257,Cherry & Mettler,CHERRY ST & METTLER ST,41.672925,-83.545278,,,,,,0
1258,Cherry & Michigan NW,CHERRY ST & N MICHIGAN ST,41.659592,-83.534313,,,,,,0
1259,Cherry & Moore NW,CHERRY ST & MOORE ST,41.667611,-83.541061,,,,,,0
1260,Cherry & Oneida SE,CHERRY ST & ONEIDA ST,41.661974,-83.5361,,,,,,0
1261,Cherry & Park NE,CHERRY ST & W PARK ST,41.678601,-83.550181,,,,,,0
1262,Cherry & Peck NE,CHERRY ST & PECK ST,41.66565,-83.539235,,,,,,0
1263,Chestnut & Central NW,CHESTNUT ST & E CENTRAL AVE,41.679053,-83.534118,,,,,,0
1264,Chestnut & Hudson SE,CHESTNUT ST & E HUDSON ST,41.683052,-83.534192,,,,,,0
1265,Chestnut & Lake NW,CHESTNUT ST & E LAKE ST,41.685227,-83.534392,,,,,,0
1266,Chestnut Lake SE,CHESTNUT ST & E LAKE ST,41.684976,-83.534266,,,,,,0
1267,Chestnut & Manhattan SE,CHESTNUT ST & E MANHATTAN BLVD,41.685953,-83.534302,,,,,,0
1268,Chestnut & Manhattan SW,CHESTNUT ST & E MANHATTAN BLVD,41.686071,-83.534409,,,,,,0
1269,Chestnut & Oakland NW,CHESTNUT ST & E OAKLAND ST,41.682518,-83.53426,,,,,,0
1270,Chestnut & Park SE,CHESTNUT ST & E PARK ST,41.679705,-83.534036,,,,,,0
1271,Chestnut & Pearl NW,CHESTNUT ST & E PEARL ST,41.684622,-83.534336,,,,,,0
1272,Chestnut & Streicher NW,CHESTNUT ST & E STREICHER ST,41.680814,-83.534163,,,,,,0
1273,Chestnut & Weber SE,CHESTNUT ST & E WEBER ST,41.681355,-83.534112,,,,,,0
1274,Cherry & Woodruff NW,CHERRY ST & E WOODRUFF AVE,41.661311,-83.53578,,,,,,0
1275,Cherry & Yates NE,CHERRY ST & YATES ST,41.667957,-83.541188,,,,,,0
1276,Cheyenne & Cresthaven NE,CHEYENNE BLVD,41.598975,-83.668415,,,,,,0
1277,Cheyenne & Glen Ridge NE,CHEYENNE BLVD & GLENRIDGE DR,41.596031,-83.668389,,,,,,0
1278,Cheyenne & Rockspring NE,CHEYENNE BLVD & ROCKSPRING RD,41.597562,-83.668392,,,,,,0
1279,Collingwood & Acklin NW,COLLINGWOOD BLVD & ACKLIN AVE,41.667186,-83.555225,,,,,,0
1280,Collingwood & Arcadia NW,COLLINGWOOD BLVD & ARCADIA AVE,41.680651,-83.555631,,,,,,0
1281,Collingwood & Arcadia SE,COLLINGWOOD BLVD & ARCADIA AVE,41.678766,-83.555345,,,,,,0
1282,Collingwood & Bancroft NW,COLLINGWOOD BLVD & W BANCROFT ST,41.664241,-83.555167,,,,,,0
1283,Collingwood & Bancroft NE,COLLINGWOOD BLVD & W BANCROFT ST,41.664233,-83.55493,,,,,,0
1284,Collingwood & Boston SE,COLLINGWOOD BLVD & BOSTON PL,41.675793,-83.555307,,,,,,0
1285,Collingwood & Central NW,COLLINGWOOD BLVD & W CENTRAL AVE,41.678882,-83.555583,,,,,,0
1286,Collingwood & Central SE,COLLINGWOOD BLVD & W CENTRAL AVE,41.677134,-83.555349,,,,,,0
1287,Collingwood & Collins NW,COLLINGWOOD BLVD & COLLINS ST,41.67606,-83.555492,,,,,,0
1288,Collingwood & Delaware NW,COLLINGWOOD BLVD & W DELAWARE AVE,41.671699,-83.555341,,,,,,0
1289,Collingwood & Delaware SE,COLLINGWOOD BLVD & W DELAWARE AVE,41.670754,-83.555181,,,,,,0
1290,Collingwood & Floyd NW,COLLINGWOOD BLVD & FLOYD ST,41.662602,-83.555127,,,,,,0
1291,Collingwood & Floyd SE,COLLINGWOOD BLVD & FLOYD ST,41.662025,-83.554924,,,,,,0
1292,Collingwood & Highland NW,COLLINGWOOD BLVD & HIGHLAND AVE,41.68257,-83.555698,,,,,,0
1293,Collingwood & Hackett SE,COLLINGWOOD BLVD & HACKETT RD,41.682657,-83.55549,,,,,,0
1294,Collingwood & Irving SE,COLLINGWOOD BLVD & IRVING ST,41.660594,-83.55489,,,,,,0
1295,Collingwood & Islington NW,COLLINGWOOD BLVD & ISLINGTON ST,41.67367,-83.55543,,,,,,0
1296,Collingwood & Islington SE,COLLINGWOOD BLVD & ISLINGTON ST,41.672778,-83.555226,,,,,,0
1297,Colony & Hillside NW,COLONY RD & HILLSIDE DR,41.605525,-83.56744,,,,,,0
1298,Collingwood & Machen SE,COLLINGWOOD BLVD & MACHEN ST,41.669322,-83.555038,,,,,,0
1299,Consaul & Genesee SW,CONSAUL ST & GENESEE ST,41.659525,-83.50141,,,,,,0
1300,Consaul & Milford SW,CONSAUL ST & MILFORD ST,41.658623,-83.498257,,,,,,0
1301,Consaul & Woodford SE,CONSAUL ST & WOODFORD ST,41.658298,-83.495741,,,,,,0
1302,Copland & Byrne NE,COPLAND BLVD & S BYRNE RD,41.593768,-83.61819,,,,,,0
1303,Copland & Deepwood NE,COPLAND BLVD & DEEPWOOD LN,41.593045,-83.602136,,,,,,0
1304,Copland & Deepwood SW,COPLAND BLVD & DEEPWOOD LN,41.593136,-83.602371,,,,,,0
1305,Collingwood & Rockingham SE,COLLINGWOOD BLVD & ROCKINGHAM ST,41.673851,-83.555221,,,,,,0
1306,Conant & Illinois NE,CONANT ST & ILLINOIS AVE,41.574124,-83.65991,,,,,,0
1310,Collingwood & Virginia SE,COLLINGWOOD BLVD & VIRGINIA ST,41.666177,-83.555017,,,,,,0
1311,Collingwood & Virginia SW,COLLINGWOOD BLVD & VIRGINIA ST,41.666073,-83.555213,,,,,,0
1312,Convent & Railroad SW,CONVENT BLVD & RAILROAD ST,41.708571,-83.702172,,,,,,0
1313,Convent & Spring NE,CONVENT BLVD & SPRING ST,41.708656,-83.702368,,,,,,0
1314,Collingwood & Woodruff NW,COLLINGWOOD BLVD & W WOODRUFF AVE,41.660877,-83.555102,,,,,,0
1315,Collingwood & Winthrop NW,COLLINGWOOD BLVD & WINTHROP ST,41.668097,-83.555266,,,,,,0
1316,Collingwood & Winthrop,COLLINGWOOD BLVD & WINTHROP ST,41.667566,-83.555035,,,,,,0
1317,City Park & Avondale SE,CITY PARK AVE & AVONDALE AVE,41.649338,-83.557349,,,,,,0
1318,City Park & Belmont NE,CITY PARK AVE & BELMONT AVE,41.648231,-83.557366,,,,,,0
1320,City Park & Curtis SE,CITY PARK AVE & CURTIS ST,41.639181,-83.555957,,,,,,0
1322,City Park & Hamilton SE,CITY PARK AVE & HAMILTON ST,41.643463,-83.557423,,,,,,0
1325,City Park & Nebraska SE,CITY PARK AVE & NEBRASKA AVE,41.644987,-83.557425,,,,,,0
1327,Crystal & Anderson NE,CRYSTAL ST & ANDERSON ST,41.583001,-83.631464,,,,,,0
1328,Crystal & Anderson SW,CRYSTAL ST & ANDERSON ST,41.582653,-83.632059,,,,,,0
1329,Crystal & Michigan NE,CRYSTAL ST & MICHIGAN AVE,41.582026,-83.63355,,,,,,0
1330,Crystal & Ogontz SW,CRYSTAL ST & OGONTZ AVE,41.585474,-83.625792,,,,,,0
1331,Crystal & Rosedale NE,CRYSTAL ST & ROSEDALE ST,41.585533,-83.62579,,,,,,0
1332,Crystal & Scott NE,CRYSTAL ST & SCOTT ST,41.58398,-83.629237,,,,,,0
1333,Crystal & Scott SW,CRYSTAL ST & SCOTT ST,41.583633,-83.62991,,,,,,0
1334,Detrroit & Aberdeen NE,S DETROIT AVE & ABERDEEN AVE,41.61583,-83.601324,,,,,,0
1335,Detroit & Aberdeen NW,S DETROIT AVE & ABERDEEN AVE,41.617413,-83.600625,,,,,,0
1336,Detroit & Aberdeen SW,S DETROIT AVE & ABERDEEN AVE,41.615429,-83.601661,,,,,,0
1337,Detroit & Ambia NW,N DETROIT AVE & AMBIA ST,41.676596,-83.56272,,,,,,0
1338,Detroit & Arlington NW,S DETROIT AVE & ARLINGTON AVE,41.622685,-83.597364,,,,,,0
1339,Detroit & Arlington SE,S DETROIT AVE & ARLINGTON AVE,41.622586,-83.597188,,,,,,0
1342,Detroit & Bradford NE,S DETROIT AVE & BRADFORD DR,41.598593,-83.610342,,,,,,0
1343,Detroit & Bradford NW,S DETROIT AVE & BRADFORD DR,41.599088,-83.610234,,,,,,0
1344,Detroit & Byrne SE,S DETROIT AVE & S BYRNE RD,41.589451,-83.61523,,,,,,0
1345,Detroit & Colby NE,S DETROIT AVE & COLBY DR,41.592492,-83.613681,,,,,,0
1346,Detroit & Copland NW,S DETROIT AVE & COPLAND BLVD,41.593881,-83.613039,,,,,,0
1347,Detroit & Copland SE,S DETROIT AVE & COPLAND BLVD,41.593402,-83.613171,,,,,,0
1348,Detroit & Glencove NW,S DETROIT AVE & GLENCOVE DR,41.628188,-83.593696,,,,,,0
1349,Detroit & Glendale NE,S DETROIT AVE & GLENDALE AVE,41.612855,-83.602813,,,,,,0
1350,Detroit & Glendale NW,S DETROIT AVE & GLENDALE AVE,41.612989,-83.602933,,,,,,0
1351,Detroit & Garden Lake Pkwy NW,S DETROIT AVE & GARDEN LAKE BLVD,41.620812,-83.598749,,,,,,0
1352,Detroit & Glenwood SW,N DETROIT AVE & GLENWOOD AVE,41.676315,-83.562776,,,,,,0
1353,Detroit & Glanzman NW,S DETROIT AVE & GLANZMAN RD,41.60126,-83.609195,,,,,,0
1354,Detroit & Glanzman SE,S DETROIT AVE & GLANZMAN RD,41.600811,-83.609207,,,,,,0
1355,Detroit & Islington NW,N DETROIT AVE & ISLINGTON ST,41.672922,-83.565104,,,,,,0
1356,Detroit & Islington SE,N DETROIT AVE & ISLINGTON ST,41.672739,-83.565096,,,,,,0
1357,Detroit & Kennison NW,S DETROIT AVE & N KENNISON DR,41.626186,-83.59504,,,,,,0
1358,Detroit & Loague NW,S DETROIT AVE & LOAGUE DR,41.610774,-83.604073,,,,,,0
1359,Detroit & Loague SE,S DETROIT AVE & LOAGUE DR,41.610143,-83.604258,,,,,,0
1360,Detroit & Medford SE,S DETROIT AVE & MEDFORD DR,41.596755,-83.6114,,,,,,0
1362,Detroit & Nieson SE,S DETROIT AVE & PATRICK RAFTER AVE,41.617178,-83.600596,,,,,,0
1363,Detroit & Nieson SW,S DETROIT AVE & PATRICK RAFTER AVE,41.619323,-83.599627,,,,,,0
1365,Detroit & Oxbridge NE,S DETROIT AVE & OXBRIDGE DR,41.594956,-83.61236,,,,,,0
1366,Detroit & Oxbridge NW,S DETROIT AVE & OXBRIDGE DR,41.595495,-83.612178,,,,,,0
1367,Detroit & Patrick Rafter SE,S DETROIT AVE & PATRICK RAFTER AVE,41.619494,-83.59909,,,,,,0
1368,Detroit & Schneider SE,S DETROIT AVE & SCHNEIDER RD,41.608495,-83.605129,,,,,,0
1369,Detroit & Sherwood NW,S DETROIT AVE & SHERWOOD AVE,41.604821,-83.607238,,,,,,0
1370,Detroit & Sherwood SE,S DETROIT AVE & SHERWOOD AVE,41.604162,-83.607444,,,,,,0
1371,Detroit & Southmoor SE,S DETROIT AVE & SOUTHMOOR DR,41.62824,-83.593553,,,,,,0
1372,Detroit & South SW,S DETROIT AVE & SOUTH AVE,41.629616,-83.592846,,,,,,0
1373,Detroit & Stamford NW,S DETROIT AVE & STAMFORD DR,41.603017,-83.608151,,,,,,0
1374,Detroit & Stamford SE,S DETROIT AVE & STAMFORD DR,41.602482,-83.608324,,,,,,0
1375,Detroit & Toledo SE,S DETROIT AVE & TOLEDO AVE,41.625264,-83.595479,,,,,,0
1376,Detroit & Tully NW,S DETROIT AVE & TULLEY AVE,41.601603,-83.608917,,,,,,0
1377,Devonshire & Astor NE,DEVONSHIRE RD & ASTOR AVE,41.587856,-83.62013,,,,,,0
1378,Devonshire & Dorian SW,DEVONSHIRE RD & DORIAN DR,41.586669,-83.623046,,,,,,0
1379,Devonshire & Escott NE,DEVONSHIRE RD & ESCOTT AVE,41.588293,-83.61916,,,,,,0
1380,Devonshire & Rocksberry NE,DEVONSHIRE RD & ROCKSBERRY AVE,41.589263,-83.616992,,,,,,0
1381,Devonshire & Villa NE,DEVONSHIRE RD & VILLA DR,41.586674,-83.623233,,,,,,0
1382,Detroit & Wall NW,N DETROIT AVE & WALL ST,41.674116,-83.564349,,,,,,0
1383,Detroit & Wall SE,N DETROIT AVE & WALL ST,41.673649,-83.564504,,,,,,0
1384,Detroit & Wildwood NE,S DETROIT AVE & WILDWOOD RD,41.606489,-83.606213,,,,,,0
1385,Douglas & Alexis SE,DOUGLAS RD & W ALEXIS RD,41.72019,-83.60505,,,,,,0
1386,Douglas & Alexis SW,DOUGLAS RD & W ALEXIS RD,41.720134,-83.605167,,,,,,0
1387,Douglas & Arletta NW,DOUGLAS RD & W ALEXIS RD,41.714668,-83.604799,,,,,,0
1388,Douglas & Bucklew NW,DOUGLAS RD & BUCKLEW DR,41.716276,-83.604903,,,,,,0
1389,Douglas & Bodette SE,DOUGLAS RD & BODETTE AVE,41.718105,-83.604911,,,,,,0
1390,Douglas & Boxwood SE,DOUGLAS RD & BOXWOOD RD,41.704413,-83.604041,,,,,,0
1391,Douglas & Charlotte SE,DOUGLAS RD & CHARLOTTE ST,41.713995,-83.604627,,,,,,0
1392,Douglas & Castleton NW,DOUGLAS RD & CASTLETON AVE,41.700076,-83.604125,,,,,,0
1393,Douglas & Elsie NW,DOUGLAS RD & ELSIE AVE,41.70227,-83.604142,,,,,,0
1394,Douglas & Gracewood NW,DOUGLAS RD & GRACEWOOD RD,41.704711,-83.60418,,,,,,0
1395,Douglas & Gracewood SE,DOUGLAS RD & GRACEWOOD RD,41.702274,-83.603954,,,,,,0
1396,Douglas & Grantwood SE,DOUGLAS RD & GRANTWOOD DR,41.69618,-83.603893,,,,,,0
1398,Douglas & Koehler NW,DOUGLAS RD & KOEHLER AVE,41.712948,-83.604667,,,,,,0
1399,Douglas & Laskey NW,DOUGLAS RD & W LASKEY RD,41.707884,-83.604285,,,,,,0
1400,Douglas & Lambert SE,DOUGLAS RD & LAMBERT DR,41.698914,-83.603977,,,,,,0
1401,Douglas & Lambert SW,DOUGLAS RD & LAMBERT DR,41.698968,-83.604118,,,,,,0
1402,Douglas & Newport SE,DOUGLAS RD & NEWPORT AVE,41.712678,-83.604497,,,,,,0
1403,Douglas & Oak Grove SE,DOUGLAS RD & OAK GROVE PL,41.699961,-83.603975,,,,,,0
1404,Douglas & Paradise SE,DOUGLAS RD & PARADISE AVE,41.707614,-83.60417,,,,,,0
1405,Douglas & Portsmouth SE,DOUGLAS RD & PORTSMOUTH AVE,41.690197,-83.603644,,,,,,0
1406,Douglas & Schroeder NW,DOUGLAS RD & SCHROEDER ST,41.718818,-83.605086,,,,,,0
1407,Douglas & Sylvania NW,DOUGLAS RD & W SYLVANIA AVE,41.693951,-83.604026,,,,,,0
1408,Douglas & Sylvania SE,DOUGLAS RD & W SYLVANIA AVE,41.692019,-83.603687,,,,,,0
1409,Douglas & Westbrook SE,DOUGLAS RD & WESTBROOK DR,41.69754,-83.603925,,,,,,0
1410,Douglas & Wernert SE,DOUGLAS RD & WERNERT AVE,41.710119,-83.604333,,,,,,0
1411,Douglas & Yellowstone NW,DOUGLAS RD & GRANTWOOD DR,41.696763,-83.60404,,,,,,0
1413,Division & Belmont NW,DIVISION ST & BELMONT AVE,41.648357,-83.552408,,,,,,0
1414,Division & Belmont SE,DIVISION ST & BELMONT AVE,41.648087,-83.552345,,,,,,0
1415,Division & Indiana NW,DIVISION ST & INDIANA AVE,41.650623,-83.552402,,,,,,0
1416,Division & Indiana SE,DIVISION ST & INDIANA AVE,41.650091,-83.552234,,,,,,0
1417,Division & Nebraska NE,DIVISION ST & NEBRASKA AVE,41.645551,-83.552347,,,,,,0
1418,Division & Nebraska NW,DIVISION ST & NEBRASKA AVE,41.645808,-83.552414,,,,,,0
1419,Division & Pinewood NW,DIVISION ST & PINEWOOD AVE,41.651479,-83.552364,,,,,,0
1420,Delaware & Auburn NE,W DELAWARE AVE & AUBURN AVE,41.670817,-83.579118,,,,,,0
1421,Delaware & Ayers NE,W DELAWARE AVE & AYERS AVE,41.670835,-83.574184,,,,,,0
1422,Delaware & Ayers SW,W DELAWARE AVE & AYERS AVE,41.670831,-83.574451,,,,,,0
1423,Delaware & Collingwood NE,W DELAWARE AVE & COLLINGWOOD BLVD,41.671133,-83.554204,,,,,,0
1424,Delaware & Collingwood NW,W DELAWARE AVE & COLLINGWOOD BLVD,41.671093,-83.555925,,,,,,0
1425,Delaware & Collingwood SE,W DELAWARE AVE & COLLINGWOOD BLVD,41.671063,-83.554241,,,,,,0
1426,Delaware & Collingwood SW,W DELAWARE AVE & COLLINGWOOD BLVD,41.671022,-83.555663,,,,,,0
1427,Delaware & Detroit SW,W DELAWARE AVE & N DETROIT AVE,41.670953,-83.567346,,,,,,0
1428,Delaware & Franklin SW,W DELAWARE AVE & FRANKLIN AVE,41.671305,-83.546205,,,,,,0
1429,Delaware & Fulton NW,W DELAWARE AVE & FULTON ST,41.671252,-83.550844,,,,,,0
1430,Delaware & Fulton SW,W DELAWARE AVE & FULTON ST,41.671149,-83.551217,,,,,,0
1431,Delaware & Glenwood NE,W DELAWARE AVE & GLENWOOD AVE,41.67097,-83.562166,,,,,,0
1432,Delaware & Glenwood SW,W DELAWARE AVE & GLENWOOD AVE,41.670903,-83.562492,,,,,,0
1433,Delaware & Lawrence SW,W DELAWARE AVE & LAWRENCE AVE,41.670858,-83.565578,,,,,,0
1434,Delaware & Lexington NE,W DELAWARE AVE & LEXINGTON AVE,41.670836,-83.576504,,,,,,0
1435,Delaware & Maplewood NE,W DELAWARE AVE & MAPLEWOOD AVE,41.670974,-83.563429,,,,,,0
1436,Delaware & Maplewood SW,W DELAWARE AVE & MAPLEWOOD AVE,41.670873,-83.56391,,,,,,0
1437,Delaware & Putnam NE,W DELAWARE AVE & PUTNAM ST,41.671371,-83.548244,,,,,,0
1438,Delaware & Putnam SW,W DELAWARE AVE & PUTNAM ST,41.671261,-83.549144,,,,,,0
1439,Delaware & Parkwood NE,W DELAWARE AVE & PARKWOOD AVE,41.671084,-83.556992,,,,,,0
1440,Delaware & Parkwood SE,W DELAWARE AVE & PARKWOOD AVE,41.671001,-83.557102,,,,,,0
1441,Delaware & Robinwood NE,W DELAWARE AVE & ROBINWOOD AVE,41.671016,-83.560475,,,,,,0
1442,Delaware & Robinwood SW,W DELAWARE AVE & ROBINWOOD AVE,41.670924,-83.561052,,,,,,0
1443,Delaware & Scottwood NE,W DELAWARE AVE & SCOTTWOOD AVE,41.671095,-83.558914,,,,,,0
1444,Delaware & Scottwood SW,W DELAWARE AVE & SCOTTWOOD AVE,41.670959,-83.559527,,,,,,0
1445,Delaware & Trenton SW,W DELAWARE AVE & TRENTON AVE,41.670761,-83.578243,,,,,,0
1446,Delaware & Warren NE,W DELAWARE AVE & WARREN ST,41.671377,-83.547001,,,,,,0
1447,Delaware & Warren SW,W DELAWARE AVE & WARREN ST,41.671286,-83.547332,,,,,,0
1448,Dorr & Atwood NE,DORR ST & ATWOOD RD,41.653324,-83.660532,,,,,,0
1449,Dorr & Bell NE,DORR ST & BELL AVE,41.653051,-83.573882,,,,,,0
1450,Dorr & Bell SE,DORR ST & BELL AVE,41.652949,-83.57501,,,,,,0
1451,Dorr & Bowlus NE,DORR ST & BOWLUS AVE,41.652972,-83.609709,,,,,,0
1452,Dorr & Bowlus SE,DORR ST & BOWLUS AVE,41.652848,-83.609778,,,,,,0
1453,Dorr & Byrne SW,DORR ST & N BYRNE RD,41.652773,-83.627039,,,,,,0
1454,Dorr & College NE,DORR ST & COLLEGE DR,41.652904,-83.626595,,,,,,0
1455,Dorr & Collingwood NE,DORR ST & COLLINGWOOD BLVD,41.653107,-83.554334,,,,,,0
1456,Dorr & Copely NE,DORR ST & COPLEY DR,41.653363,-83.662287,,,,,,0
1457,Dorr & Collingwood SW,DORR ST & COLLINGWOOD BLVD,41.652437,-83.555547,,,,,,0
1458,Dorr & Coventry NE,DORR ST & COVENTRY AVE,41.652893,-83.59673,,,,,,0
1459,Dorr & Coventry SW,DORR ST & COVENTRY AVE,41.652875,-83.597454,,,,,,0
1460,Dorr & City Park SW,DORR ST & CITY PARK AVE,41.652994,-83.557795,,,,,,0
1461,Dorr & Detroit NE,DORR ST & N DETROIT AVE,41.653076,-83.577015,,,,,,0
1462,Dorr & Detroit SW,DORR ST & N DETROIT AVE,41.652955,-83.578712,,,,,,0
1463,Dorr & Douglas,DORR ST & DOUGLAS RD,41.652949,-83.60592,,,,,,0
1464,Dorr & Division NW,DORR ST & DIVISION ST,41.653028,-83.552389,,,,,,0
1465,Dorr & Division SW,DORR ST & DIVISION ST,41.652928,-83.552807,,,,,,0
1466,Dorr & Evesham NE,DORR ST & EVESHAM AVE,41.65291,-83.593239,,,,,,0
1467,Dorr & Eileen NE,DORR ST & EILEEN RD,41.653256,-83.656375,,,,,,0
1468,Dorr & Eton NE,DORR ST & ETON RD,41.653675,-83.676925,,,,,,0
1469,Dorr & Ewing NE,DORR ST & EWING ST,41.653056,-83.5621,,,,,,0
1470,Dorr & Ewing SW,DORR ST & EWING ST,41.652955,-83.562635,,,,,,0
1471,Dorr & Fielding NE,DORR ST & FIELDING ST,41.653743,-83.679172,,,,,,0
1472,Dorr & Forest NE,DORR ST & FOREST AVE,41.653082,-83.569508,,,,,,0
1473,Dorr & Forest SW,DORR ST & FOREST AVE,41.65296,-83.570298,,,,,,0
1474,Dorr & Fairlawn SW,DORR ST & FAIRLAWN AVE,41.652839,-83.605449,,,,,,0
1475,Dorr & Groesbeck NE,DORR ST & GROESBECK ST,41.653075,-83.558024,,,,,,0
1476,Dorr & Greta Green SW,DORR ST & GRETNA GREEN AVE,41.652748,-83.634717,,,,,,0
1477,Dorr & Green Hills NW,DORR ST & GREENHILLS RD,41.652838,-83.629647,,,,,,0
1478,Dorr & Green Hills SW,DORR ST & GREENHILLS RD,41.652758,-83.629647,,,,,,0
1479,Dorr & Olimphia NEE,DORR ST & HARROW RD,41.653652,-83.674333,,,,,,0
1480,Dorr & Hawley NE,DORR ST & N HAWLEY ST,41.653072,-83.566718,,,,,,0
1481,Dorr & Hawley SW,DORR ST & N HAWLEY ST,41.65295,-83.567625,,,,,,0
1482,Dorr & Heidelberg NW,DORR ST & HEIDELBERG RD,41.65364,-83.678226,,,,,,0
1483,Dorr & Heidelberg SW,DORR ST & HEIDELBERG RD,41.653539,-83.673135,,,,,,0
1484,Dorr & Hess NE,DORR ST & HESS RD,41.653452,-83.66649,,,,,,0
1485,Dorr & Hess SW,DORR ST & HESS RD,41.653395,-83.666957,,,,,,0
1486,Dorr & Hoag NE,DORR ST & HOAG ST,41.65308,-83.571663,,,,,,0
1487,Dorr & Hoag SW,DORR ST & HOAG ST,41.65295,-83.572873,,,,,,0
1488,Dorr & Holland Sylvania NE,DORR ST & N HOLLAND SYLVANIA RD,41.653819,-83.682384,,,,,,0
1489,Dorr & Independence NE,DORR ST & INDEPENDENCE RD,41.652788,-83.635457,,,,,,0
1491,Dorr & Krieger SW,DORR ST & KRIEGER DR,41.653694,-83.681747,,,,,,0
1492,Dorr & Lawrence NE,DORR ST & LAWRENCE AVE,41.653066,-83.563928,,,,,,0
1493,Dorr & Lawrence SW,DORR ST & LAWRENCE AVE,41.652905,-83.564788,,,,,,0
1494,Dorr & Lawnview NE,DORR ST & LAWNVIEW AVE,41.652889,-83.602551,,,,,,0
1495,Dorr & Lawnview SW,DORR ST & LAWNVIEW AVE,41.652843,-83.603273,,,,,,0
1496,Dorr & Longwood NW,DORR ST & LONGWOOD DR,41.653558,-83.671626,,,,,,0
1497,Dorr & Moran SW,DORR ST & MORAN AVE,41.652783,-83.619835,,,,,,0
1498,Dorr & N Haven SW,DORR ST & N HAVEN RD,41.653207,-83.660178,,,,,,0
1499,Dorr & Olimphia NE,DORR ST & OLIMPHIA RD,41.653612,-83.674603,,,,,,0
1500,Dorr & Park SE,DORR ST & PARK LN,41.653676,-83.680829,,,,,,0
1501,Dorr & Pelee SW,DORR ST & PELEE ST,41.652846,-83.601508,,,,,,0
1502,Dorr & Penn NE,DORR ST & PENN RD,41.653185,-83.653751,,,,,,0
1503,Dorr & Penn SE,DORR ST & PENN RD,41.653008,-83.653994,,,,,,0
1504,Dorr & Potomac SW,DORR ST & POTOMAC DR,41.65288,-83.593147,,,,,,0
1506,Dorr & Pine Valley SW,DORR ST & PINE VALLEY LN,41.653128,-83.656303,,,,,,0
1507,Dorr & Reynolds NE,DORR ST & N REYNOLDS RD,41.653437,-83.664132,,,,,,0
1510,Dorr & Richards SW,DORR ST & RICHARDS RD,41.652745,-83.641243,,,,,,0
1511,Dorr & St Andrews NE,DORR ST & ST ANDREWS RD,41.652798,-83.643771,,,,,,0
1512,Dorr & Sawyer SW,DORR ST & SAWYER RD,41.653488,-83.671286,,,,,,0
1513,Dorr & Searles NE,DORR ST & SEARLES RD,41.652937,-83.619961,,,,,,0
1514,Dorr & Sibley NE,DORR ST & SIBLEY RD,41.653498,-83.669743,,,,,,0
1515,Dorr & Sibley SE,DORR ST & SIBLEY RD,41.65346,-83.669872,,,,,,0
1516,Dorr & Smead NW,DORR ST & SMEAD AVE,41.652984,-83.580855,,,,,,0
1517,Dorr & Smead SW,DORR ST & SMEAD AVE,41.652922,-83.581389,,,,,,0
1519,Dorr & Turner NE,DORR ST & TURNER AVE,41.652958,-83.611961,,,,,,0
1520,Dorr & Turner SW,DORR ST & TURNER AVE,41.652865,-83.613029,,,,,,0
1521,Dorr & Upton SW,DORR ST & UPTON AVE,41.652834,-83.58881,,,,,,0
1522,Dorr & Underwood NE,DORR ST & UNDERWOOD AVE,41.652904,-83.616895,,,,,,0
1523,Dorr & Vanderbuilt SE,DORR ST & VANDERBILT RD,41.653628,-83.678824,,,,,,0
1524,Dorr & Wamba SW,DORR ST & WAMBA AVE,41.652858,-83.608311,,,,,,0
1525,Dorr & Warwick NE,DORR ST & WARWICK AVE,41.65289,-83.599412,,,,,,0
1526,Dorr & Warwick SW,DORR ST & WARWICK AVE,41.652859,-83.599873,,,,,,0
1527,Dorr & Waverly NE,DORR ST & WAVERLY AVE,41.652923,-83.59004,,,,,,0
1529,Dorr & Wells SW,DORR ST & WELLS ST,41.652962,-83.560633,,,,,,0
1530,Dorr & Westhaven SW,DORR ST & N WESTHAVEN RD,41.653232,-83.662461,,,,,,0
1531,Dover Place & Dearborn SE,DOVER PL & DEARBORN AVE,41.642127,-83.499301,,,,,,0
1539,Dixie Hwy & Cove SE,DIXIE HWY & COVE LN,41.599721,-83.56989,,,,,,0
1540,Dixie Hwy & Elm SW,DIXIE HWY & ELM ST,41.613674,-83.553854,,,,,,0
1541,Dixie Hwy & Eagle Point SE,DIXIE HWY & EAGLE POINT RD,41.607827,-83.561513,,,,,,0
1542,Dixie Hwy & Lime City SW,DIXIE HWY & LIME CITY RD,41.601288,-83.567817,,,,,,0
1543,Dixie Hwy & Maple SE,DIXIE HWY & MAPLE ST,41.612235,-83.555683,,,,,,0
1544,Dixie Hwy & Walnut SE,DIXIE HWY & WALNUT ST,41.611283,-83.556917,,,,,,0
1545,East Broadway & Albert SE,E BROADWAY ST & ALBERT ST,41.626646,-83.515324,,,,,,0
1546,East Broadway & Earl SE,E BROADWAY ST & EARL ST,41.631762,-83.515496,,,,,,0
1547,East Broadway & Earl SW,E BROADWAY ST & EARL ST,41.632084,-83.515589,,,,,,0
1548,East Broadway & Greenwood NW,E BROADWAY ST & GREENWOOD AVE,41.641806,-83.515916,,,,,,0
1549,East Broadway & Greenwood SE,E BROADWAY ST & GREENWOOD AVE,41.64139,-83.515756,,,,,,0
1550,East Broadway & Hanson SE,E BROADWAY ST & HANSON ST,41.622477,-83.515226,,,,,,0
1551,East Broadway & Idaho NW,E BROADWAY ST & IDAHO ST,41.638431,-83.515793,,,,,,0
1552,East Broadway & Idaho SE,E BROADWAY ST & IDAHO ST,41.63767,-83.515681,,,,,,0
1553,East Broadway & Liberty NW,E BROADWAY ST & LIBERTY ST,41.628409,-83.515496,,,,,,0
1554,East Broadway & Madeleine SE,E BROADWAY ST & MADELEINE ST,41.632757,-83.515503,,,,,,0
1555,East Broadway & Nevada NW,E BROADWAY ST & NEVADA ST,41.640264,-83.515865,,,,,,0
1556,East Broadway & Nevada SE,E BROADWAY ST & NEVADA ST,41.639811,-83.515743,,,,,,0
1557,East Broadway & Navarre NW,E BROADWAY ST & NAVARRE AVE,41.636758,-83.515759,,,,,,0
1558,East Broadway & Navarre SE,E BROADWAY ST & NAVARRE AVE,41.635889,-83.515603,,,,,,0
1559,East Broadway & Richford SW,E BROADWAY ST & RICHFORD ST,41.623502,-83.515366,,,,,,0
1560,East Broadway & Starr SE,E BROADWAY ST & STARR AVE,41.642899,-83.515817,,,,,,0
1561,East Broadway & Starr SW,E BROADWAY ST & STARR AVE,41.64315,-83.515923,,,,,,0
1562,East Broadway & Vinal NW,E BROADWAY ST & VINAL ST,41.626549,-83.515442,,,,,,0
1563,East Broadway & Varland SE,E BROADWAY ST & VARLAND AVE,41.630768,-83.515478,,,,,,0
1564,East Broadway & Varland SW,E BROADWAY ST & VARLAND AVE,41.630416,-83.515565,,,,,,0
1565,East Broadway & Woodville SE,E BROADWAY ST & WOODVILLE RD,41.634135,-83.51555,,,,,,0
1566,East Broadway & Woodville SW,E BROADWAY ST & WOODVILLE RD,41.634322,-83.515677,,,,,,0
1567,Edgewater & 133rd NW,EDGEWATER DR & 133RD ST,41.721611,-83.469833,,,,,,0
1568,Edgewater & 134th SE,EDGEWATER DR & 134TH ST,41.721606,-83.469758,,,,,,0
1569,Edgewater & 136th NW,EDGEWATER DR & 136TH ST,41.723483,-83.469903,,,,,,0
1570,Edgwater & 136th SE,EDGEWATER DR & 136TH ST,41.722941,-83.469818,,,,,,0
1571,Edgewater & 138th NW,EDGEWATER DR & 138TH ST,41.724787,-83.469481,,,,,,0
1572,Edgewater & 138th SE,EDGEWATER DR & 138TH ST,41.724238,-83.469824,,,,,,0
1573,Edgewater & 140th NW,EDGEWATER DR & 140TH ST,41.725919,-83.467581,,,,,,0
1574,Edgewater & 140th SW,EDGEWATER DR & 140TH ST,41.725545,-83.468062,,,,,,0
1575,Edgewater & 141st NW,EDGEWATER DR & 141ST ST,41.726636,-83.466657,,,,,,0
1576,Edgewater & 149th SE,EDGEWATER DR & 149TH ST,41.730629,-83.465372,,,,,,0
1577,Edgewater & 315th SE,EDGEWATER DR & 315TH ST,41.726172,-83.467204,,,,,,0
1578,Edgewater & Edgewater Park NE,EDGEWATER DR & EDGEWATER PARK,41.729166,-83.465764,,,,,,0
1579,Edgewater & Edgewater Park SE,EDGEWATER DR & EDGEWATER PARK,41.728682,-83.465883,,,,,,0
1580,Eastgate & Heatherdowns SE,EASTGATE RD & HEATHERDOWNS BLVD,41.593579,-83.643316,,,,,,0
1581,Erie & Hedingham NE,ERIE ST & HEDINGHAM RD,41.717711,-83.731724,,,,,,0
1582,Eleanor & Asbury NE,ELEANOR AVE & ASBURY DR,41.699998,-83.561245,,,,,,0
1583,Eleanor & Belmar NE,ELEANOR AVE & BELMAR AVE,41.699607,-83.582096,,,,,,0
1584,Eleanor & Belmar SW,ELEANOR AVE & BELMAR AVE,41.699491,-83.582827,,,,,,0
1585,Eleanor & Bennett SW,ELEANOR AVE & BENNETT RD,41.70005,-83.556985,,,,,,0
1586,Eleanor & Berwick SW,ELEANOR AVE & BERWICK AVE,41.699479,-83.584614,,,,,,0
1587,Eleanor & Burnham NE,ELEANOR AVE & BURNHAM AVE,41.700069,-83.558859,,,,,,0
1588,Eleanor & Burnham SW,ELEANOR AVE & BURNHAM AVE,41.699988,-83.559733,,,,,,0
1589,Eleanor & Commonwealth NE,ELEANOR AVE & COMMONWEALTH AVE,41.699632,-83.580545,,,,,,0
1590,Eleanor & Eastway SE,ELEANOR AVE & EASTWAY ST,41.699725,-83.57132,,,,,,0
1591,Eleanor & Eastway NE,ELEANOR AVE & EASTWAY ST,41.699795,-83.57122,,,,,,0
1592,Eleanor & Eastway SW,ELEANOR AVE & EASTWAY ST,41.699737,-83.572668,,,,,,0
1593,Eleanor & Jackman NE,ELEANOR AVE & JACKMAN RD,41.69959,-83.584367,,,,,,0
1594,Eleanor & Lockwood NE,ELEANOR AVE & N LOCKWOOD AVE,41.699822,-83.569751,,,,,,0
1595,Eleanor & Lockwood SW,ELEANOR AVE & N LOCKWOOD AVE,41.699757,-83.570248,,,,,,0
1596,Eleanor & Lewis NE,ELEANOR AVE & LEWIS AVE,41.699888,-83.565449,,,,,,0
1597,Eleanor & Lewis SW,ELEANOR AVE & LEWIS AVE,41.699829,-83.566835,,,,,,0
1601,Elmhurst & Grantwood SE,ELMHURST RD & GRANTWOOD DR,41.693899,-83.614147,,,,,,0
1603,Elmhurst & Sylvania NW,ELMHURST RD & W SYLVANIA AVE,41.69217,-83.614191,,,,,,0
1606,Eleanor & North Haven NE,ELEANOR AVE & N HAVEN AVE,41.699827,-83.56855,,,,,,0
1607,Eleanor & North Haven SW,ELEANOR AVE & N HAVEN AVE,41.69979,-83.569213,,,,,,0
1608,Eleanor & Overland NE,ELEANOR AVE & OVERLAND PKWY,41.699751,-83.574924,,,,,,0
1609,Eleanor & Overland SW,ELEANOR AVE & OVERLAND PKWY,41.699692,-83.575877,,,,,,0
1610,Eleanor & Packard NE,ELEANOR AVE & PACKARD RD,41.700115,-83.557079,,,,,,0
1611,Eleanor & Vermaas SW,ELEANOR AVE & VERMAAS AVE,41.699974,-83.560655,,,,,,0
1612,Eleanor & Walker NE,ELEANOR AVE & WALKER AVE,41.699937,-83.563097,,,,,,0
1613,Eleanor & Walker SW,ELEANOR AVE & WALKER AVE,41.699863,-83.563717,,,,,,0
1614,Eleanor & Willys NE,ELEANOR AVE & WILLYS PKWY,41.699793,-83.572309,,,,,,0
1615,Eleanor & Westway NE,ELEANOR AVE & WESTWAY ST,41.699715,-83.576853,,,,,,0
1616,Eleanor & Westway SW,ELEANOR AVE & WESTWAY ST,41.699643,-83.577845,,,,,,0
1618,Hobart & St Clair NE,EMERALD AVE & HOBART ST,41.638409,-83.549442,,,,,,0
1619,Emerald & Williams SW,EMERALD AVE & WILLIAMS ST,41.638359,-83.541117,,,,,,0
1620,Emerald & Vinton NE,EMERALD AVE & VINTON ST,41.638363,-83.553625,,,,,,0
1621,Eagle Point & Colony NE,EAGLE POINT RD & COLONY RD,41.606858,-83.567368,,,,,,0
1622,Eagle Point & Hannum NW,EAGLE POINT RD & HANNUM AVE,41.607893,-83.562892,,,,,,0
1625,Eagle Point & Jennings NE,EAGLE POINT RD & JENNINGS RD,41.607292,-83.565438,,,,,,0
1626,Eagle Point & Windsor NW,EAGLE POINT RD & WINDSOR DR,41.607593,-83.564343,,,,,,0
1627,Erie & Ash NE,N ERIE ST & ASH ST,41.666672,-83.513646,,,,,,0
1628,Erie & Ash SW,N ERIE ST & ASH ST,41.666439,-83.514362,,,,,,0
1629,Erie & Buffalo SW,N ERIE ST & BUFFALO ST,41.665369,-83.516552,,,,,,0
1630,Erie & Buckeye NW,N ERIE ST & BUCKEYE ST,41.668079,-83.512271,,,,,,0
1631,Erie & Bush SW,N ERIE ST & BUSH ST,41.663658,-83.520191,,,,,,0
1632,Erie & Buckeye SW,N ERIE ST & BUCKEYE ST,41.667947,-83.51216,,,,,,0
1633,Erie & Chestnut SW,N ERIE ST & CHESTNUT ST,41.661201,-83.525385,,,,,,0
1634,Erie & Elden NE,ERIE ST & ELDEN DR,41.719051,-83.709284,,,,,,0
1635,Erie & Elm SW,N ERIE ST & ELM ST,41.660448,-83.526902,,,,,,0
1636,Erie & Eagle Trace SE,ERIE ST & EAGLE TRACE DR,41.717366,-83.737874,,,,,,0
1637,Erie & Foxpointe SE,ERIE ST & FOXPOINTE DR,41.717791,-83.729496,,,,,,0
1638,Erie & Foxpointe SW,ERIE ST & FOXPOINTE DR,41.71764,-83.731796,,,,,,0
1639,Erie & Galena NW,N ERIE ST & GALENA ST,41.670303,-83.509522,,,,,,0
1640,Erie & Galena SW,N ERIE ST & GALENA ST,41.670307,-83.509391,,,,,,0
1641,Erie & Granville S,ERIE ST & GRANVILLE DR,41.718339,-83.720107,,,,,,0
1642,Erie & Highland View NE,ERIE ST & HIGHLAND VIEW DR,41.718704,-83.713998,,,,,,0
1644,Erie & Jeffrey S,ERIE ST & JEFFREY LN,41.718031,-83.725698,,,,,,0
1645,Erie & Lagrange SW,N ERIE ST & LAGRANGE ST,41.659673,-83.528521,,,,,,0
1646,Erie & Little SW,ERIE ST & LITTLE RD,41.717494,-83.734199,,,,,,0
1647,Erie & Locust SW,N ERIE ST & LOCUST ST,41.659089,-83.529792,,,,,,0
1649,Erie & Magnolia SW,N ERIE ST & MAGNOLIA ST,41.662611,-83.522459,,,,,,0
1650,Erie & Main SW,ERIE ST & MAIN ST,41.719353,-83.703824,,,,,,0
1651,Erie & Monroe SE,ERIE ST & MONROE ST,41.71859,-83.715321,,,,,,0
1652,Erie & Monroe SW,N ERIE ST & MONROE ST,41.649715,-83.540396,,,,,,0
1653,Erie & Maplewood SE,ERIE ST & MAPLEWOOD AVE,41.718919,-83.710391,,,,,,0
1654,Erie & Maplewood SW,ERIE ST & MAPLEWOOD AVE,41.718717,-83.713661,,,,,,0
1655,Erie & Mulberry SW,N ERIE ST & MULBERRY ST,41.661883,-83.523949,,,,,,0
1657,Erie & Old Farm NE,ERIE ST & OLD FARM LN,41.717546,-83.73446,,,,,,0
1658,Erie & Phillips SE,ERIE ST & PHILLIPS ST,41.719171,-83.707344,,,,,,0
1659,Erie & Phillips SW,ERIE ST & PHILLIPS ST,41.718983,-83.709568,,,,,,0
1661,Erie & Stickney SW,N ERIE ST & STICKNEY AVE,41.664579,-83.518174,,,,,,0
1662,Erie & Walnut SW,N ERIE ST & WALNUT ST,41.658337,-83.531352,,,,,,0
1663,Erie & Woodrow NE,ERIE ST & WOODROW DR,41.719275,-83.705484,,,,,,0
1664,Erie & Wakefield NE,ERIE ST & WAKEFIELD DR,41.71795,-83.727733,,,,,,0
1665,Erie & Wakefield NW,ERIE ST & WAKEFIELD DR,41.717796,-83.730253,,,,,,0
1666,Erie & Winding Way NW,ERIE ST & WINDING WAY,41.718218,-83.723297,,,,,,0
1668,Executive Parkway & Central NW,EXECUTIVE PKWY & W CENTRAL AVE,41.680659,-83.628795,,,,,,0
1669,Executive Parkway & Oak Alley NE,EXECUTIVE PKWY & OAK ALLEY CT,41.682162,-83.628709,,,,,,0
1670,Executive Parkway & Secor NW,EXECUTIVE PKWY & SECOR RD,41.682706,-83.624793,,,,,,0
1676,Front & Bogar SE,FRONT ST & BOGAR ST,41.661013,-83.50109,,,,,,0
1677,Front & Carbon NW,FRONT ST & CARBON ST,41.654843,-83.51324,,,,,,0
1678,Front & Carbon SE,FRONT ST & CARBON ST,41.654295,-83.513861,,,,,,0
1679,Front & Consaul NE,FRONT ST & CONSAUL ST,41.66011,-83.502251,,,,,,0
1682,Front & Craig SE,FRONT ST & CRAIG ST,41.664647,-83.496421,,,,,,0
1683,Front & Dearborn SE,FRONT ST & DEARBORN AVE,41.655373,-83.512071,,,,,,0
1684,Front & East Broadway NW,FRONT ST & E BROADWAY ST,41.652108,-83.517711,,,,,,0
1685,Front & East Broadway SW,FRONT ST & E BROADWAY ST,41.651576,-83.518339,,,,,,0
1686,Front & Elgin SW,FRONT ST & ELGIN AVE,41.653181,-83.51574,,,,,,0
1687,Front & Essex SW,FRONT ST & ESSEX ST,41.651136,-83.519084,,,,,,0
1688,Front & Euclid NE,FRONT ST & EUCLID AVE,41.648211,-83.524192,,,,,,0
1689,Front & Euclid SW,FRONT ST & EUCLID AVE,41.647801,-83.524571,,,,,,0
1690,Franklin & Bancroft NW,FRANKLIN AVE & W BANCROFT ST,41.664389,-83.545721,,,,,,0
1691,Franklin & Bancroft SE,FRANKLIN AVE & E BANCROFT ST,41.663704,-83.545373,,,,,,0
1692,Franklin & Batavia NW,FRANKLIN AVE & BATAVIA ST,41.666996,-83.545643,,,,,,0
1693,Franklin & Delaware SE,FRANKLIN AVE & E DELAWARE AVE,41.670275,-83.545631,,,,,,0
1694,Franklin & Irving NW,FRANKLIN AVE & IRVING ST,41.662561,-83.545475,,,,,,0
1695,Franklin & Machen NW,FRANKLIN AVE & MACHEN ST,41.670233,-83.545732,,,,,,0
1696,Franklin & Prescott SE,FRANKLIN AVE & PRESCOTT ST,41.662365,-83.545374,,,,,,0
1697,Franklin & Woodruff NW,FRANKLIN AVE & W WOODRUFF AVE,41.661058,-83.545415,,,,,,0
1698,Franklin & Winthrop NE,FRANKLIN AVE & WINTHROP ST,41.668091,-83.545522,,,,,,0
1699,Franklin & Winthrop NW,FRANKLIN AVE & WINTHROP ST,41.669167,-83.545724,,,,,,0
1700,Franklin & Winthrop SE,FRANKLIN AVE & WINTHROP ST,41.66773,-83.545466,,,,,,0
1701,Front & Morrison SE,FRONT ST & MORRISON DR,41.650347,-83.52042,,,,,,0
1702,Front & Oswald NE,FRONT ST & OSWALD ST,41.650091,-83.521022,,,,,,0
1704,Front & Paine SW,FRONT ST & PAINE AVE,41.663225,-83.498291,,,,,,0
1705,Front & Platt SW,FRONT ST & PLATT ST,41.648908,-83.522661,,,,,,0
1707,Front & Whittemore SW,FRONT ST & WHITTEMORE ST,41.661968,-83.499922,,,,,,0
1708,Front & Worthington SW,FRONT ST & WORTHINGTON ST,41.652284,-83.517236,,,,,,0
1709,Front & York SE,FRONT ST & YORK ST,41.665733,-83.494962,,,,,,0
1710,Gibbs & Anthony Wayne Trail NW,GIBBS ST & ANTHONY WAYNE TRL,41.566599,-83.653846,,,,,,0
1711,Gibbs & Clinton SE,GIBBS ST & CLINTON ST,41.566568,-83.653485,,,,,,0
1712,Glendale & Almon NE,GLENDALE AVE & ALMON AVE,41.612002,-83.596577,,,,,,0
1713,Glendale & Almon SW,GLENDALE AVE & ALMON AVE,41.611939,-83.597406,,,,,,0
1714,Glendale & Anthony Wayne Trail NE,GLENDALE AVE & ANTHONY WAYNE TRL,41.612357,-83.592458,,,,,,0
1715,Glendale & Anthony Wayne Trail SE,GLENDALE AVE & ANTHONY WAYNE TRL,41.612195,-83.593177,,,,,,0
1716,Glendale & Anthony Wayne Trail SW,GLENDALE AVE & ANTHONY WAYNE TRL,41.611838,-83.596041,,,,,,0
1717,Glendale & Broadway SW,GLENDALE AVE & UNNAMED ST,41.612253,-83.587465,,,,,,0
1718,Glendale & Bensch SW,GLENDALE AVE & BENSCH DR,41.612167,-83.613796,,,,,,0
1719,Glendale & Beverly Hills NE,GLENDALE AVE & BEVERLY HILLS DR,41.61251,-83.632276,,,,,,0
1720,Glendale & Byrne NE,GLENDALE AVE & S BYRNE RD,41.612502,-83.623427,,,,,,0
1721,Glendale & Byrne SE,GLENDALE AVE & S BYRNE RD,41.612383,-83.623877,,,,,,0
1722,Glendale & Byrne SW,GLENDALE AVE & S BYRNE RD,41.612411,-83.626523,,,,,,0
1723,Glendale & Cherrylawn NW,GLENDALE AVE & CHERRYLAWN DR,41.612296,-83.638597,,,,,,0
1724,Glendale & Cherrylawn SW,GLENDALE AVE & CHERRYLAWN DR,41.61212,-83.638948,,,,,,0
1725,Glendale & Corry NE,GLENDALE AVE & CORRY AVE,41.612087,-83.599813,,,,,,0
1726,Glendale & Detroit SW,GLENDALE AVE & S DETROIT AVE,41.612038,-83.605587,,,,,,0
1727,Glendale & Eaton NE,GLENDALE AVE & EATON DR,41.612566,-83.626775,,,,,,0
1728,Glendale & Eaton SW,GLENDALE AVE & EASTGATE RD,41.612438,-83.629381,,,,,,0
1729,Glendale & Fallbrook NE,GLENDALE AVE & FALLBROOK RD,41.610298,-83.645939,,,,,,0
1730,Glendale & Fallbrook SW,GLENDALE AVE & FALLBROOK RD,41.609901,-83.646571,,,,,,0
1731,Glendale & Glenbrook NE,GLENDALE AVE & GLENBROOK DR,41.612164,-83.601352,,,,,,0
1732,Glendale & Glen Valley NE,GLENDALE AVE & GLEN VALLEY DR,41.605345,-83.657228,,,,,,0
1733,Glendale & Glen Valley NW,GLENDALE AVE & GLEN VALLEY DR,41.604905,-83.659173,,,,,,0
1734,Glendale & Glen Valley SW,GLENDALE AVE & GLEN VALLEY DR,41.60504,-83.657636,,,,,,0
1735,Glendale & Garden Ridge NW,GLENDALE AVE & GARDEN RIDGE DR,41.607307,-83.652783,,,,,,0
1736,Glendale & Garden Ridge SW,GLENDALE AVE & GARDEN RIDGE DR,41.606966,-83.653058,,,,,,0
1737,Glendale & Gateway NE,GLENDALE AVE & GATEWAY DR,41.6122,-83.605222,,,,,,0
1738,Glendale & Green Valley NE,GLENDALE AVE & GREEN VALLEY DR,41.608935,-83.649208,,,,,,0
1739,Glendale & Green Valley SW,GLENDALE AVE & GREEN VALLEY DR,41.608331,-83.650163,,,,,,0
1740,Glendale & Highland Green NE,GLENDALE AVE & HIGHLAND GREEN DR,41.612472,-83.636031,,,,,,0
1741,Glendale & Highland Green SW,GLENDALE AVE & HIGHLAND GREEN DR,41.612317,-83.636781,,,,,,0
1742,Glendale & Juliet NE,GLENDALE AVE & JULIET DR,41.612546,-83.629313,,,,,,0
1743,Glendale & Kenyon NE,GLENDALE AVE & KENYON DR,41.612318,-83.588409,,,,,,0
1745,Glendale & Lampwick NE,GLENDALE AVE & LAMPWICK PL,41.60619,-83.655241,,,,,,0
1746,Glendale & Lampwick SW,GLENDALE AVE & LAMPWICK PL,41.605548,-83.656169,,,,,,0
1747,Glendale & Luscombe NE,GLENDALE AVE & LUSCOMBE DR,41.612252,-83.609238,,,,,,0
1748,Glendale & Maumee Valley SE,GLENDALE AVE & GLEN VALLEY DR,41.604612,-83.660243,,,,,,0
1749,Glendale & Oak Hill NE,GLENDALE AVE & OAK HILL CT,41.612349,-83.613868,,,,,,0
1750,Glendale & Oak Hill NW,GLENDALE AVE & OAK HILL CT,41.612398,-83.615684,,,,,,0
1751,Glendale & Oak Hill SW,GLENDALE AVE & OAK HILL CT,41.612065,-83.616752,,,,,,0
1752,Glendale & Pennelwood NE,GLENDALE AVE & PENNELWOOD DR,41.612283,-83.610219,,,,,,0
1753,Garden Lake Pkwy & Garden Lake Blvd NE,GARDEN LAKE PKWY & GARDEN LAKE BLVD,41.622135,-83.595909,,,,,,0
1754,Glendale & Park Ridge SW,GLENDALE AVE & PARK RIDGE LN,41.610704,-83.644305,,,,,,0
1755,Glendale  Princeton NE,GLENDALE AVE & PRINCETON DR,41.612335,-83.590693,,,,,,0
1756,Glendale & Princeton SE,GLENDALE AVE & PRINCETON DR,41.612295,-83.591294,,,,,,0
1757,Garden Lake Pkwy & Virgina Lake,GARDEN LAKE PKWY & VIRGINIA LAKE RD,41.621739,-83.594997,,,,,,0
1758,Glendale & Reynolds NE,GLENDALE AVE & S REYNOLDS RD,41.604761,-83.662062,,,,,,0
1759,Glendale & Reynolds SE,GLENDALE AVE & S REYNOLDS RD,41.60463,-83.662858,,,,,,0
1760,Glendale & Southland NE,UNNAMED ST & GLENDALE AVE,41.612504,-83.621998,,,,,,0
1761,Glendale & Southland SE,GLENDALE AVE & UNNAMED ST,41.612335,-83.622212,,,,,,0
1762,Glendale & Stanwix NE,GLENDALE AVE & STANWIX DR,41.612229,-83.607784,,,,,,0
1763,Glendale & Stanwix SW,GLENDALE AVE & STANWIX DR,41.61211,-83.608849,,,,,,0
1764,Glendale & UTMC NE,GLENDALE AVE & MUOT BLVD,41.612466,-83.617406,,,,,,0
1765,Glendale & UTMC NW,GLENDALE AVE & MUOT BLVD,41.612513,-83.620378,,,,,,0
1766,Glendale & UTMC SW,GLENDALE AVE & MUOT BLVD,41.612298,-83.618199,,,,,,0
1767,Glendale & UTMC SWW,GLENDALE AVE & MUOT BLVD,41.612333,-83.620089,,,,,,0
1768,Glendale & Watova SW,GLENDALE AVE & WATOVA RD,41.612035,-83.60145,,,,,,0
1769,Grove Place & Lincoln NE,GROVE PL & LINCOLN AVE,41.657468,-83.558514,,,,,,0
1770,Glanzman & Birchwood NE,GLANZMAN RD & BIRCHWOOD AVE,41.601302,-83.619371,,,,,,0
1771,Glanzman & Pickford NW,GLANZMAN RD & PICKFORD DR,41.601226,-83.613882,,,,,,0
1772,Glanzman & Pickford SW,GLANZMAN RD & PICKFORD DR,41.601105,-83.613446,,,,,,0
1773,Glanzman & Tarkington NE,GLANZMAN RD & TARKINGTON AVE,41.601267,-83.616853,,,,,,0
1774,Glanzman & Tarkington SW,GLANZMAN RD & TARKINGTON AVE,41.601174,-83.617705,,,,,,0
1775,Glanzman & Wilshire NE,GLANZMAN RD & WILSHIRE AVE,41.601365,-83.622449,,,,,,0
1776,Glanzman & Wilshire SW,GLANZMAN RD & WILSHIRE AVE,41.601267,-83.622931,,,,,,0
1777,Hamilton & Bismark NE,HAMILTON ST & BISMARK ST,41.643691,-83.555656,,,,,,0
1778,Harroun & Arrowhead NE,HARROUN RD & ARROWHEAD DR,41.706357,-83.694325,,,,,,0
1779,Harroun & Brint NW,HARROUN RD & BRINT RD,41.705769,-83.694502,,,,,,0
1780,Harroun & Ravine SE,HARROUN RD & RAVINE DR,41.709964,-83.69421,,,,,,0
1781,Heatherdowns & Briar NE,HEATHERDOWNS BLVD & BRIAR LN,41.594715,-83.670516,,,,,,0
1782,Heatherdowns & Briar SE,HEATHERDOWNS BLVD & BRIAR LN,41.594589,-83.672147,,,,,,0
1783,Heatherdowns & Birchwood,HEATHERDOWNS BLVD & BIRCHWOOD AVE,41.605385,-83.619203,,,,,,0
1784,Heatherdowns & Birchwood SW,HEATHERDOWNS BLVD & BIRCHWOOD AVE,41.605291,-83.620043,,,,,,0
1785,Heatherdowns & Byrne NE,HEATHERDOWNS BLVD & S BYRNE RD,41.602736,-83.625186,,,,,,0
1786,Heatherdowns & Cass NE,HEATHERDOWNS BLVD & CASS RD,41.594514,-83.654193,,,,,,0
1787,Heatherdowns & Cass SW,HEATHERDOWNS BLVD & CASS RD,41.594396,-83.655398,,,,,,0
1788,Heatherdowns & Cragmoor SW,HEATHERDOWNS BLVD & CRAGMOOR AVE,41.606645,-83.614627,,,,,,0
1789,Heatherdowns & Colony NE,HEATHERDOWNS BLVD & COLONY DR,41.601439,-83.628018,,,,,,0
1790,Heatherdowns & Colony SW,HEATHERDOWNS BLVD & COLONY DR,41.601058,-83.628523,,,,,,0
1791,Heatherdowns & Dublin NE,HEATHERDOWNS BLVD & DUBLIN PL,41.594569,-83.65763,,,,,,0
1792,Heatherdowns & Dublin SW,HEATHERDOWNS BLVD & DUBLIN PL,41.59446,-83.658641,,,,,,0
1793,Heatherdowns & East Country Club NE,HEATHERDOWNS BLVD & E COUNTRY CLUB PKWY,41.600377,-83.630156,,,,,,0
1794,Heatherdowns & Eastgate NE,HEATHERDOWNS BLVD & EASTGATE RD,41.59487,-83.64193,,,,,,0
1795,Heatherdowns & Eastgate SW,HEATHERDOWNS BLVD & EASTGATE RD,41.594188,-83.644362,,,,,,0
1796,Heffner & Kelsey NW,HEFFNER ST & KELSEY AVE,41.646259,-83.501541,,,,,,0
1799,Heffner & Lott Ct NW,HEFFNER ST & LOTT CT,41.648254,-83.501601,,,,,,0
1802,Heffner & Seaman SW,100 HEFFNER ST,41.649343,-83.50169,,,,,,0
1804,Heffner & Starr NW,HEFFNER ST & STARR AVE,41.64411,-83.501473,,,,,,0
1805,Heatherdowns & Gardengate NW,HEATHERDOWNS BLVD & GARDENGATE PL,41.59461,-83.659743,,,,,,0
1806,Heatherdowns & Green Valley NE,HEATHERDOWNS BLVD & GREEN VALLEY DR,41.596161,-83.639084,,,,,,0
1807,Heatherdowns & Heather Gate NE,HEATHERDOWNS BLVD & HEATHER GATE BLVD,41.594436,-83.651015,,,,,,0
1808,Heatherdowns & Heather Gate SW,HEATHERDOWNS BLVD & HEATHER GATE BLVD,41.594338,-83.652452,,,,,,0
1809,Heatherdowns & Havenhurst NE,HEATHERDOWNS BLVD & HAVENHURST AVE,41.604595,-83.621923,,,,,,0
1810,Heatherdowns & Havenhurst SW,HEATHERDOWNS BLVD & HAVENHURST AVE,41.604107,-83.622577,,,,,,0
1811,Heatherdowns & Heather Lake NE,HEATHERDOWNS BLVD & HEATHER VALLEY PL,41.594379,-83.648406,,,,,,0
1812,Heatherdowns & Heather Lake SW,HEATHERDOWNS BLVD & HEATHER VALLEY PL,41.594263,-83.649287,,,,,,0
1813,Heatherdowns & Heatherwood NE,HEATHERDOWNS BLVD & HEATHERWOOD DR,41.597572,-83.636075,,,,,,0
1814,Heatherdowns & Heatherwood SE,HEATHERDOWNS BLVD & HEATHERWOOD DR,41.597281,-83.636435,,,,,,0
1815,Heatherdowns & Heatherwyck NW,HEATHERDOWNS BLVD & HEATHERWYCK CT,41.594741,-83.676176,,,,,,0
1816,Heatherdowns & Heatherwyck SW,HEATHERDOWNS BLVD & HEATHERWYCK CT,41.594589,-83.676309,,,,,,0
1817,Heatherdowns & Havenwood NE,HEATHERDOWNS BLVD & HAVENWOOD DR,41.595641,-83.640282,,,,,,0
1818,Heatherdowns & Havenwood SW,HEATHERDOWNS BLVD & HAVENWOOD DR,41.595272,-83.640668,,,,,,0
1819,Heatherdowns & Key NE,HEATHERDOWNS BLVD & KEY ST,41.59431,-83.644854,,,,,,0
1820,Heatherdowns & Key SW,HEATHERDOWNS BLVD & KEY ST,41.594208,-83.646401,,,,,,0
1821,Heatherdowns & Meadowlark SW,HEATHERDOWNS BLVD & MEADOWLARK AVE,41.608275,-83.613129,,,,,,0
1822,Heatherdowns & Muirfield NE,HEATHERDOWNS BLVD & MUIRFIELD AVE,41.608244,-83.613218,,,,,,0
1823,Heatherdowns & Old Stone NE,HEATHERDOWNS BLVD & OLD STONE CT,41.594644,-83.660873,,,,,,0
1824,Heatherdowns & Perrysburg Holland NE,HEATHERDOWNS BLVD & PERRYSBURG HOLLAND RD,41.594793,-83.68317,,,,,,0
1825,Heatherdowns & Perrysburg Holland SE,HEATHERDOWNS BLVD & PERRYSBURG HOLLAND RD,41.594623,-83.683249,,,,,,0
1826,Heatherdowns & Plum Leaf NE,HEATHERDOWNS BLVD & PLUM LEAF LN,41.594746,-83.674221,,,,,,0
1827,Heatherdowns & Plum Leaf SE,HEATHERDOWNS BLVD & PLUM LEAF LN,41.594583,-83.674179,,,,,,0
1828,Heatherdowns & Reynolds NE,HEATHERDOWNS BLVD & S REYNOLDS RD,41.594666,-83.662031,,,,,,0
1829,Heatherdowns & Royal Haven NE,HEATHERDOWNS BLVD & ROYAL HAVEN DR,41.606542,-83.614742,,,,,,0
1830,Heatherdowns & Staghorn SW,HEATHERDOWNS BLVD & STAGHORN DR,41.594592,-83.680844,,,,,,0
1831,Heatherdowns & Tarkington NE,HEATHERDOWNS BLVD & TARKINGTON AVE,41.605382,-83.617321,,,,,,0
1832,Heatherdowns & Tarkington SW,HEATHERDOWNS BLVD & TARKINGTON AVE,41.605306,-83.617564,,,,,,0
1833,Heatherdowns & West Country Club NE,HEATHERDOWNS BLVD & W COUNTRY CLUB PKWY,41.599146,-83.63274,,,,,,0
1834,Heatherdowns & West Country Club SW,HEATHERDOWNS BLVD & W COUNTRY CLUB PKWY,41.598622,-83.633565,,,,,,0
1835,Heatherdowns & Whitechapel NE,HEATHERDOWNS BLVD & WHITECHAPEL DR,41.594744,-83.678253,,,,,,0
1836,Heatherdowns & Whitechapel SE,HEATHERDOWNS BLVD & WHITECHAPEL DR,41.594592,-83.678119,,,,,,0
1837,Heatherdowns & Wilshire NE,HEATHERDOWNS BLVD & WILSHIRE AVE,41.603523,-83.623516,,,,,,0
1838,Heatherdowns & Wilshire SW,HEATHERDOWNS BLVD & WILSHIRE AVE,41.602675,-83.625169,,,,,,0
1839,Heatherdowns & West Village SW,HEATHERDOWNS BLVD & W VILLAGE DR,41.594514,-83.661544,,,,,,0
1840,Hill & Arco SW,Hill Ave,41.638025,-83.625405,,,,,,0
1841,Hill & Bexley NE,HILL AVE & BEXLEY RD,41.638723,-83.670482,,,,,,0
1842,Hill & Burbank NE,HILL AVE & BURBANK DR,41.638172,-83.608015,,,,,,0
1843,Hill & Burbank SW,HILL AVE & BURBANK DR,41.637999,-83.609606,,,,,,0
1844,Hill & Byrne Hill NW,HILL AVE & BYRNE HILL CT,41.638206,-83.62755,,,,,,0
1845,Hill & Byrne NE,HILL AVE & N BYRNE RD,41.638173,-83.625518,,,,,,0
1846,Hill & Byrne SW,HILL AVE & S BYRNE RD,41.638039,-83.626742,,,,,,0
1847,Hill & Carol NE,HILL AVE & CAROL LN,41.638314,-83.656399,,,,,,0
1848,Hill & Carol SW,HILL AVE & CAROL LN,41.638233,-83.657094,,,,,,0
1849,Hill & Central Park NE,HILL AVE & CENTRAL PARK DR,41.638217,-83.629621,,,,,,0
1850,Hill & Central Park NW,HILL AVE & CENTRAL PARK DR,41.638235,-83.63258,,,,,,0
1851,Hill & Central Park SE,HILL AVE & CENTRAL PARK DR,41.638064,-83.629864,,,,,,0
1852,Hill & Central Park SW,HILL AVE & CENTRAL PARK DR,41.638094,-83.632755,,,,,,0
1853,Hill & Elmdale NE,HILL AVE & ELMDALE RD,41.638171,-83.615504,,,,,,0
1854,Hill & Hidden Valley NE,HILL AVE & HIDDEN VALLEY DR,41.638717,-83.667902,,,,,,0
1855,Hill & Harmony NE,HILL AVE & HARMONY LN,41.638244,-83.651672,,,,,,0
1856,Hill & Harmony SW,HILL AVE & HARMONY LN,41.638125,-83.652572,,,,,,0
1857,Hill & Holland Sylvania NE,HILL AVE & N HOLLAND SYLVANIA RD,41.638683,-83.683971,,,,,,0
1858,Hill & Independence NE,HILL AVE & INDEPENDENCE RD,41.638258,-83.636901,,,,,,0
1859,Hill & Melody SW,HILL AVE & MELODY LN,41.638133,-83.650826,,,,,,0
1860,Hill & McTigue NE,HILL AVE & MCTIGUE DR,41.638691,-83.674092,,,,,,0
1861,Hill & McTigue NW,HILL AVE & MCTIGUE DR,41.638717,-83.677246,,,,,,0
1862,Hill & Reynolds NE,HILL AVE & N REYNOLDS RD,41.638724,-83.663878,,,,,,0
1864,Hill & Richards NE,HILL AVE & RICHARDS RD,41.63828,-83.640072,,,,,,0
1865,Hill & Richards SW,HILL AVE & RICHARDS RD,41.638106,-83.641068,,,,,,0
1866,Hill & Shaftsbury NE,HILL AVE & SHAFTSBURY DR,41.638474,-83.659457,,,,,,0
1867,Hill & Shaftsbury SW,HILL AVE & SHAFTSBURY DR,41.638389,-83.659853,,,,,,0
1868,Hill & Telstar NE,HILL AVE & TELSTAR DR,41.638168,-83.612583,,,,,,0
1869,Hill & Telstar SW,HILL AVE & TELSTAR DR,41.638095,-83.613411,,,,,,0
1870,Hill & Torrington NW,HILL AVE & TORRINGTON DR,41.63825,-83.647176,,,,,,0
1871,Hill & Torrington SW,HILL AVE & TORRINGTON DR,41.638127,-83.6478,,,,,,0
1872,Hill & Tiffany Square NE,HILL AVE & TIFFANY SQUARE DR,41.638262,-83.634966,,,,,,0
1873,Hill & Tiffany Square SW,HILL AVE & TIFFANY SQUARE DR,41.638108,-83.636454,,,,,,0
1875,Hill & Wenz NE,HILL AVE & WENZ RD,41.638284,-83.644313,,,,,,0
1876,Hill & Wenz SE,HILL AVE & WENZ RD,41.638118,-83.645008,,,,,,0
1878,Holland Sylvania & Airport SE,S HOLLAND SYLVANIA RD & AIRPORT HWY,41.612347,-83.684048,,,,,,0
1879,Holland Sylvania & Bancroft NE,N HOLLAND SYLVANIA RD & W BANCROFT ST,41.662626,-83.682461,,,,,,0
1880,Holland Sylvania & Bancroft NW,N HOLLAND SYLVANIA RD & W BANCROFT ST,41.662947,-83.682655,,,,,,0
1881,Holland Sylvania & Central SE,N HOLLAND SYLVANIA RD & W CENTRAL AVE,41.673559,-83.682574,,,,,,0
1882,Holland Sylvania & Chanticleer SE,S HOLLAND SYLVANIA RD & S CHANTICLEER DR,41.6006,-83.688884,,,,,,0
1883,Holland Sylvania & Cook NE,N HOLLAND SYLVANIA RD & COOK DR,41.641337,-83.68423,,,,,,0
1884,Holland Sylvania & Castle Rock NW,N HOLLAND SYLVANIA RD & CASTLE ROCK DR,41.658711,-83.682625,,,,,,0
1885,Holland Sylvania & Castle Rock SE,N HOLLAND SYLVANIA RD & CASTLE ROCK DR,41.658481,-83.68249,,,,,,0
1886,Holland Sylvania & Dennison SE,N HOLLAND SYLVANIA RD & DENNISON RD,41.670064,-83.682463,,,,,,0
1887,Holland Sylvania & Dorr SE,N HOLLAND SYLVANIA RD & DORR ST,41.653534,-83.682514,,,,,,0
1888,Holland Sylvania & Edgebrook NW,N HOLLAND SYLVANIA RD & EDGEBROOK BLVD,41.666835,-83.682534,,,,,,0
1889,Holland Sylvania & Elmer SE,N HOLLAND SYLVANIA RD & ELMER DR,41.66885,-83.68237,,,,,,0
1890,Holland Sylvania & Fallen Leaf NW,N HOLLAND SYLVANIA RD & FALLEN LEAF DR,41.668516,-83.68251,,,,,,0
1891,Holland Sylvania & Globe SE,N HOLLAND SYLVANIA RD & GLOBE AVE,41.648581,-83.682554,,,,,,0
1892,Holland Sylvania & Huntingfield NW,N HOLLAND SYLVANIA RD & HUNTINGFIELD BLVD,41.672901,-83.682716,,,,,,0
1893,Holland Sylvania & Luddington SE,N HOLLAND SYLVANIA RD & LUDDINGTON DR,41.664748,-83.682433,,,,,,0
1894,Holland Sylvania & Nebraska SE,N HOLLAND SYLVANIA RD & NEBRASKA AVE,41.645785,-83.68332,,,,,,0
1895,Holland Sylvania & Parkstone NW,N HOLLAND SYLVANIA RD & PARKSTONE DR,41.661205,-83.682614,,,,,,0
1896,Holland Sylvania & Pembridge NW,N HOLLAND SYLVANIA RD & E PEMBRIDGE DR,41.670182,-83.682652,,,,,,0
1897,Holland Sylvania & Southern SE,N HOLLAND SYLVANIA RD & SOUTHERN ST,41.651051,-83.682527,,,,,,0
1898,Huron & Adams NE,N HURON ST & ADAMS ST,41.654243,-83.535291,,,,,,0
1899,Huron & Cherry NE,N HURON ST & CHERRY ST,41.657253,-83.531154,,,,,,0
1900,Huron & Chestnut NW,N HURON ST & CHESTNUT ST,41.660343,-83.524605,,,,,,0
1901,Huron & Elm NW,N HURON ST & ELM ST,41.659611,-83.526154,,,,,,0
1902,Huron & Lagrange NW,N HURON ST & LAGRANGE ST,41.658816,-83.527811,,,,,,0
1903,Huron & Locust NE,N HURON ST & LOCUST ST,41.658353,-83.528857,,,,,,0
1904,Huron & Magnolia NE,N HURON ST & MAGNOLIA ST,41.661991,-83.521161,,,,,,0
1905,Huron & Mulberry NW,N HURON ST & MULBERRY ST,41.661012,-83.523253,,,,,,0
1906,Huron & Orange NE,N HURON ST & ORANGE ST,41.656691,-83.532359,,,,,,0
1907,Huron & Stickney NE,N HURON ST & STICKNEY AVE,41.663938,-83.51708,,,,,,0
1908,Harvard & Princeton NW,HARVARD BLVD & PRINCETON DR,41.61556,-83.587041,,,,,,0
1909,Harvard & Princeton SE,HARVARD BLVD & PRINCETON DR,41.615227,-83.58659,,,,,,0
1923,Indiana & 13th SE,INDIANA AVE & S 13TH ST,41.650293,-83.546555,,,,,,0
1925,Indiana & City Park NW,INDIANA AVE & CITY PARK AVE,41.650414,-83.557942,,,,,,0
1926,Indiana & City Park SW,INDIANA AVE & CITY PARK AVE,41.650317,-83.557786,,,,,,0
1927,Indiana & Detroit SW,INDIANA AVE & N DETROIT AVE,41.650279,-83.579998,,,,,,0
1928,Indiana & Elizabeth NW,INDIANA AVE & ELIZABETH ST,41.650349,-83.561083,,,,,,0
1929,Indiana & Elizabeth SE,INDIANA AVE & ELIZABETH ST,41.650323,-83.55942,,,,,,0
1930,Indiana & Ewing NE,INDIANA AVE & EWING ST,41.650411,-83.562307,,,,,,0
1931,Indiana & Ewing SW,INDIANA AVE & EWING ST,41.650333,-83.562727,,,,,,0
1932,Indiana & Forest NE,INDIANA AVE & FOREST AVE,41.650424,-83.569276,,,,,,0
1933,Indiana & Forest SW,INDIANA AVE & FOREST AVE,41.650343,-83.570222,,,,,,0
1934,Indiana & Hawley NE,INDIANA AVE & N HAWLEY ST,41.650415,-83.566854,,,,,,0
1935,Indiana & Hawley SW,INDIANA AVE & N HAWLEY ST,41.650355,-83.567923,,,,,,0
1936,Indiana & Heston NE,INDIANA AVE & HESTON ST,41.650394,-83.575006,,,,,,0
1937,Indiana & Heston SW,INDIANA AVE & HESTON ST,41.650306,-83.575848,,,,,,0
1938,Indiana & Hoag NE,INDIANA AVE & HOAG ST,41.650413,-83.571424,,,,,,0
1939,Indiana & Hoag SW,INDIANA AVE & HOAG ST,41.650295,-83.572985,,,,,,0
1940,Indiana & Junction NE,INDIANA AVE & JUNCTION AVE,41.650373,-83.576968,,,,,,0
1941,Indiana & Junction SW,INDIANA AVE & JUNCTION AVE,41.650306,-83.577847,,,,,,0
1942,Indiana & Miller NE,INDIANA AVE & N MILLER ST,41.650414,-83.564507,,,,,,0
1943,Indiana & Miller SW,INDIANA AVE & N MILLER ST,41.650356,-83.565271,,,,,,0
1944,Indiana & Smead NE,INDIANA AVE & SMEAD AVE,41.650385,-83.579735,,,,,,0
1947,Indiana & True NE,INDIANA AVE & TRUE ST,41.650406,-83.573218,,,,,,0
1948,Indiana & True SW,INDIANA AVE & TRUE ST,41.650299,-83.573809,,,,,,0
1949,Jackman & Alexis NE,JACKMAN RD & W ALEXIS RD,41.721993,-83.585414,,,,,,0
1950,Jackman & Alexis NW,JACKMAN RD & W ALEXIS RD,41.722123,-83.585591,,,,,,0
1951,Jackman & Alexis SE,JACKMAN RD & W ALEXIS RD,41.72025,-83.585398,,,,,,0
1952,Jackman & Benwick NW,JACKMAN RD & E BENWICK RD,41.717456,-83.585645,,,,,,0
1953,Jackman & Benwick SE,JACKMAN RD & E BENWICK RD,41.716792,-83.585409,,,,,,0
1954,Jackman & Christian NW,JACKMAN RD & CHRISTIAN AVE,41.710742,-83.585599,,,,,,0
1955,Jackman & Christian SE,JACKMAN RD & CHRISTIAN AVE,41.710009,-83.585355,,,,,,0
1956,Jackman & Glastonberry NW,JACKMAN RD & GLASTONBERRY RD E,41.719689,-83.585564,,,,,,0
1957,Jackman & Gould SE,JACKMAN RD & GOULD RD,41.701584,-83.58524,,,,,,0
1958,Jackman & Laskey NE,JACKMAN RD & W LASKEY RD,41.707486,-83.585282,,,,,,0
1959,Jackman & Laskey NW,JACKMAN RD & W LASKEY RD,41.707965,-83.585561,,,,,,0
1960,Jackman & Northover NE,JACKMAN RD & NORTHOVER RD,41.714112,-83.58542,,,,,,0
1961,Jackman & Northover NW,JACKMAN RD & NORTHOVER RD,41.714127,-83.585637,,,,,,0
1962,Jackman & Newport SE,JACKMAN RD & NEWPORT AVE,41.712821,-83.585336,,,,,,0
1963,Jackman & Newport SW,JACKMAN RD & NEWPORT AVE,41.712971,-83.585625,,,,,,0
1964,Jackman & Travis SE,JACKMAN RD & TRAVIS DR,41.72472,-83.585462,,,,,,0
1965,Jackman & Travis SW,JACKMAN RD & TRAVIS DR,41.724989,-83.585602,,,,,,0
1967,Jefferson & 12th SW,JEFFERSON AVE & 12TH ST,41.653614,-83.543495,,,,,,0
1968,Jefferson & 13th NE,JEFFERSON AVE & 13TH ST,41.653707,-83.543305,,,,,,0
1969,Jefferson & 13th SW,JEFFERSON AVE & 13TH ST,41.65421,-83.544754,,,,,,0
1970,Jefferson & 15th SW,JEFFERSON AVE & 15TH ST,41.654877,-83.546184,,,,,,0
1971,Jefferson & 17th NW,JEFFERSON AVE & 17TH ST,41.65526,-83.546645,,,,,,0
1972,Jefferson & 18th SW,JEFFERSON AVE & 18TH ST,41.656179,-83.54887,,,,,,0
1973,Jefferson & 21st SW,JEFFERSON AVE & 21ST ST,41.657189,-83.550974,,,,,,0
1974,Jefferson & 22nd NE,JEFFERSON AVE & 22ND ST,41.657317,-83.550971,,,,,,0
1975,Jefferson & 22nd SW,JEFFERSON AVE & 22ND ST,41.657879,-83.552504,,,,,,0
1976,Jefferson & 23rd NE,JEFFERSON AVE & 23RD ST,41.658418,-83.55331,,,,,,0
1977,Jefferson & 23rd SW,JEFFERSON AVE & 23RD ST,41.658624,-83.553935,,,,,,0
1978,Jefferson & Ontario SW,JEFFERSON AVE & N ONTARIO ST,41.652247,-83.540601,,,,,,0
1979,Jackson & 12th NE,JACKSON ST & N 12TH ST,41.657244,-83.539486,,,,,,0
1980,Jackson &14th NE,JACKSON ST & N 14TH ST,41.657831,-83.541603,,,,,,0
1981,Jackson & Superior SW,JACKSON ST & N SUPERIOR ST,41.654316,-83.53434,,,,,,0
1982,Kenwood & Alisdale NE,KENWOOD BLVD & ALISDALE DR,41.670853,-83.610149,,,,,,0
1983,Kenwood & Alisdale SW,KENWOOD BLVD & ALISDALE DR,41.670843,-83.610774,,,,,,0
1984,Kenwood & Cheltenham NE,KENWOOD BLVD & CHELTENHAM RD,41.670909,-83.612096,,,,,,0
1985,Kenwood & Cheltenham SW,KENWOOD BLVD & CHELTENHAM RD,41.670774,-83.612777,,,,,,0
1986,Kenwood & Densmore NE,KENWOOD BLVD & DENSMORE DR,41.670774,-83.620703,,,,,,0
1987,Kenwood & Densmore SW,KENWOOD BLVD & DENSMORE DR,41.670634,-83.621612,,,,,,0
1988,Kenwood & Douglas SW,KENWOOD BLVD & DOUGLAS RD,41.670392,-83.608847,,,,,,0
1989,Kenwood & Drummond NE,KENWOOD BLVD & DRUMMOND RD,41.670872,-83.614132,,,,,,0
1990,Kenwood & Drummond SW,KENWOOD BLVD & DRUMMOND RD,41.670764,-83.614783,,,,,,0
1991,Kenwood & Gunckel NE,KENWOOD BLVD & GUNCKEL BLVD,41.670585,-83.598511,,,,,,0
1992,Kenwood & Gunckel SW,KENWOOD BLVD & GUNCKEL BLVD,41.670508,-83.599676,,,,,,0
1993,Kenwood & Latonia SW,KENWOOD BLVD & LATONIA BLVD,41.670441,-83.605977,,,,,,0
1994,Kenwood & Letchworth NE,KENWOOD BLVD & LETCHWORTH PKWY,41.670561,-83.603124,,,,,,0
1995,Kenwood & Meadowwood NE,KENWOOD BLVD & MEADOWWOOD DR,41.670846,-83.61561,,,,,,0
1996,Kenwood & Meadowwood SW,KENWOOD BLVD & MEADOWWOOD DR,41.670744,-83.616441,,,,,,0
1997,Kenwood & Middlesex NE,KENWOOD BLVD & MIDDLESEX DR,41.670828,-83.618117,,,,,,0
1998,Kenwood & Middlesex SW,KENWOOD BLVD & MIDDLESEX DR,41.670685,-83.618993,,,,,,0
1999,Kenwood & Northwood NE,KENWOOD BLVD & NORTHWOOD AVE,41.670578,-83.596837,,,,,,0
2000,Kenwood & Northwood SE,KENWOOD BLVD & NORTHWOOD AVE,41.670527,-83.597717,,,,,,0
2001,Kenwood & Powhattan SW,KENWOOD BLVD & POWHATTAN PKWY,41.670476,-83.60196,,,,,,0
2002,Kenwood & Secor NE,KENWOOD BLVD & SECOR RD,41.670748,-83.622041,,,,,,0
2003,Kenwood & Whiteway NE,KENWOOD BLVD & WHITEWAY RD,41.670486,-83.606586,,,,,,0
2004,Kenwood & Whiteway SW,KENWOOD BLVD & WHITEWAY RD,41.670415,-83.607258,,,,,,0
2008,Kroger Maumee,REYNOLDS RD & W DUSSEL DR,41.58364,-83.666607,,,,,,0
2011,Laskey & Clover SW,W LASKEY RD & CLOVER LN,41.705661,-83.639256,,,,,,0
2012,Laskey & Estero NE,W LASKEY RD & ESTERO PL,41.705645,-83.643722,,,,,,0
2014,Laskey & Harvest NE,W LASKEY RD & HARVEST LN,41.705941,-83.632664,,,,,,0
2015,Laskey & Harvest SW,W LASKEY RD & HARVEST LN,41.70577,-83.634,,,,,,0
2019,Laskey & Kathy NE,W LASKEY RD & KATHY LN,41.705707,-83.639557,,,,,,0
2020,Laskey & Oak Ridge NE,W LASKEY RD & OAK RIDGE DR,41.706232,-83.626867,,,,,,0
2021,Laskey & Secor SW,W LASKEY RD & SECOR RD,41.706122,-83.627036,,,,,,0
2029,Lime City & Lewis SW,LIME CITY RD & LEWIS ST,41.600249,-83.567555,,,,,,0
2031,Lime City & Schreier NW,LIME CITY RD & SCHREIER RD,41.598002,-83.567546,,,,,,0
2033,Lehman & 282nd NE,LEHMAN AVE & 282ND ST,41.701656,-83.492299,,,,,,0
2034,Lehman & 285th SW,LEHMAN AVE & 285TH ST,41.701624,-83.491423,,,,,,0
2035,Lehman & 286th NE,LEHMAN AVE & 286TH ST,41.701706,-83.489288,,,,,,0
2036,Lehman & 288th NE,LEHMAN AVE & 288TH ST,41.701734,-83.488295,,,,,,0
2037,Lehman & 288th SW,LEHMAN AVE & 288TH ST,41.701643,-83.488612,,,,,,0
2038,Lehman & 290th SW,LEHMAN AVE & 290TH ST,41.701707,-83.486248,,,,,,0
2039,Lehman & Dahlia SE,LEHMAN AVE & DAHLIA DR,41.701562,-83.493328,,,,,,0
2040,Lehman & Suder NE,LEHMAN AVE & SUDER AVE,41.701556,-83.497471,,,,,,0
2041,Lagrange & Austin NW,LAGRANGE ST & AUSTIN ST,41.673687,-83.538396,,,,,,0
2042,Lagrange & Bancroft NW,LAGRANGE ST & E BANCROFT ST,41.666475,-83.533836,,,,,,0
2043,Lagrange & Bancroft SE,LAGRANGE ST & E BANCROFT ST,41.66626,-83.533439,,,,,,0
2044,Lagrange & Central NW,LAGRANGE ST & E CENTRAL AVE,41.678934,-83.54068,,,,,,0
2045,Lagrange & Champlain NW,LAGRANGE ST & CHAMPLAIN ST,41.662596,-83.53056,,,,,,0
2046,Lagrange & Champlain SE,LAGRANGE ST & CHAMPLAIN ST,41.662469,-83.530155,,,,,,0
2047,Lagrange & Delaware SE,LAGRANGE ST & E DELAWARE AVE,41.671172,-83.537127,,,,,,0
2048,Lagrange & Delaware SW,LAGRANGE ST & E DELAWARE AVE,41.671439,-83.53743,,,,,,0
2049,Lagrange & Erie NW,LAGRANGE ST & N ERIE ST,41.660268,-83.528496,,,,,,0
2050,Lagrange & Everett SE,LAGRANGE ST & EVERETT ST,41.675399,-83.538973,,,,,,0
2051,Lagrange & George SW,LAGRANGE ST & GEORGE ST,41.66473,-83.53239,,,,,,0
2052,Lagrange & Lake NW,LAGRANGE ST & E LAKE ST,41.685089,-83.54336,,,,,,0
2053,Lagrange & Mabel SE,LAGRANGE ST & MABEL ST,41.690797,-83.545334,,,,,,0
2054,Lagrange & Mabel SW,LAGRANGE ST & MABEL ST,41.691101,-83.545608,,,,,,0
2055,Lagrange & Majestic SE,LAGRANGE ST & MAJESTIC DR,41.686381,-83.543691,,,,,,0
2056,Lagrange & Mettler NW,LAGRANGE ST & METTLER ST,41.675604,-83.539245,,,,,,0
2057,Lagrange & Moss NE,LAGRANGE ST & MOSS ST,41.673973,-83.538346,,,,,,0
2058,Lagrange & Mont Royal NW,LAGRANGE ST & MONT ROYAL DR,41.687667,-83.544342,,,,,,0
2059,Lagrange & Oakland NW,LAGRANGE ST & E OAKLAND ST,41.682561,-83.542274,,,,,,0
2060,Lagrange & Oakland SE,LAGRANGE ST & E OAKLAND ST,41.681998,-83.541836,,,,,,0
2061,Lagrange & Ontario SE,LAGRANGE ST & N ONTARIO ST,41.660167,-83.528303,,,,,,0
2062,Lagrange & Page NW,LAGRANGE ST & PAGE ST,41.669116,-83.536073,,,,,,0
2063,Lagrange & Page SE,LAGRANGE ST & PAGE ST,41.668748,-83.535572,,,,,,0
2064,Lagrange & Palmer NW,LAGRANGE ST & PALMER ST,41.672489,-83.537903,,,,,,0
2065,Lagrange & Pearl SE,LAGRANGE ST & E PEARL ST,41.683657,-83.542567,,,,,,0
2066,Lagrange & S. Expressway SE,LAGRANGE ST & S EXPRESSWAY DR,41.687927,-83.54426,,,,,,0
2067,Lagrange & Sherman NW,LAGRANGE ST & SHERMAN ST,41.66797,-83.535114,,,,,,0
2068,Lagrange & Sherman SE,LAGRANGE ST & SHERMAN ST,41.667546,-83.534575,,,,,,0
2069,Lagrange & Streicher NW,LAGRANGE ST & E STREICHER ST,41.680707,-83.541478,,,,,,0
2070,Lagrange & Streicher SE,LAGRANGE ST & E STREICHER ST,41.680221,-83.541059,,,,,,0
2071,Lagrange & Superior NW,LAGRANGE ST & N SUPERIOR ST,41.658135,-83.526775,,,,,,0
2072,Lagrange & Superior SE,LAGRANGE ST & N SUPERIOR ST,41.658006,-83.526439,,,,,,0
2073,Lagrange & Utica SE,LAGRANGE ST & UTICA ST,41.665125,-83.532411,,,,,,0
2074,Lincoln & Detroit NW,LINCOLN AVE & N DETROIT AVE,41.657347,-83.57534,,,,,,0
2075,Lincoln & Hoag NW,LINCOLN AVE & HOAG ST,41.65739,-83.572723,,,,,,0
2076,Lincoln & Lawrence NE,LINCOLN AVE & LAWRENCE AVE,41.657525,-83.562551,,,,,,0
2077,Lincoln & Forest NE,LINCOLN AVE & FOREST AVE,41.657424,-83.569084,,,,,,0
2078,Lincoln & Smead NE,LINCOLN AVE & SMEAD AVE,41.657248,-83.580009,,,,,,0
2079,Lincoln & Waite NE,LINCOLN AVE & WAITE AVE,41.657463,-83.566044,,,,,,0
2081,Lewis & McDonald NW,LEWIS AVE & ALCOTT ST,41.698243,-83.566002,,,,,,0
2082,Lewis & Alexis SE,LEWIS AVE & W ALEXIS RD,41.720014,-83.566412,,,,,,0
2083,Lewis & Alexis SW,LEWIS AVE & W ALEXIS RD,41.721106,-83.566676,,,,,,0
2084,Lewis & Branleigh NW,LEWIS AVE & BRANLEIGH DR,41.696294,-83.565822,,,,,,0
2085,Lewis & Branleigh SE,LEWIS AVE & BRANLEIGH DR,41.696047,-83.565607,,,,,,0
2086,Lewis & Cribb NW,LEWIS AVE & CRIBB ST,41.70523,-83.566103,,,,,,0
2087,Lewis & Custer NW,LEWIS AVE & CUSTER DR,41.70902,-83.566207,,,,,,0
2088,Lewis & Custer SE,LEWIS AVE & CUSTER DR,41.708015,-83.566012,,,,,,0
2089,Lewis & Gramercy SE,LEWIS AVE & W GRAMERCY AVE,41.703734,-83.565933,,,,,,0
2090,Lewis & Gramercy SW,LEWIS AVE & W GRAMERCY AVE,41.703866,-83.56607,,,,,,0
2091,Lewis & Kipling SE,LEWIS AVE & KIPLING DR,41.700696,-83.565885,,,,,,0
2092,Lewis & Kipling SW,LEWIS AVE & KIPLING DR,41.700676,-83.566005,,,,,,0
2093,Lewis & Linda NW,LEWIS AVE & LINDA DR,41.713656,-83.566365,,,,,,0
2094,Lewis & Mallett NW,LEWIS AVE & MALLETT ST,41.693978,-83.56547,,,,,,0
2095,Lewis & Mallett SE,LEWIS AVE & MALLETT ST,41.693531,-83.565388,,,,,,0
2096,Lewis & McDonald SE,LEWIS AVE & MCDONALD ST,41.698001,-83.56576,,,,,,0
2097,Lewis & Mayfair NE,LEWIS AVE & MAYFAIR BLVD,41.71188,-83.566122,,,,,,0
2098,Lewis & Mayfair NW,LEWIS AVE & MAYFAIR BLVD,41.712119,-83.566237,,,,,,0
2099,Lewis & Northgate NW,LEWIS AVE & W NORTHGATE PKWY,41.714622,-83.566394,,,,,,0
2100,Lewis & Northgate SE,LEWIS AVE & W NORTHGATE PKWY,41.713625,-83.56622,,,,,,0
2101,Lewis & Slater SE,LEWIS AVE & SLATER ST,41.706154,-83.565988,,,,,,0
2102,Lewis & San Mateo NE,LEWIS AVE & SAN MATEO DR,41.716287,-83.566296,,,,,,0
2103,Lewis & San Mateo NNE,LEWIS AVE & SAN MATEO DR,41.717709,-83.566355,,,,,,0
2104,Lewis & San Mateo NNW,LEWIS AVE & SAN MATEO DR,41.717944,-83.566549,,,,,,0
2105,Lewis & San Mateo NW,LEWIS AVE & SAN MATEO DR,41.716407,-83.56645,,,,,,0
2106,Lewis & Southover NE,LEWIS AVE & SOUTHOVER RD,41.709283,-83.566065,,,,,,0
2107,Main & 2nd NE,MAIN ST & 2ND ST,41.647505,-83.522322,,,,,,0
2108,Main & 2nd SW,MAIN ST & 2ND ST,41.647231,-83.522094,,,,,,0
2109,Main & 4th NE,MAIN ST & 4TH ST,41.646246,-83.520899,,,,,,0
2110,Main & 6th SW,MAIN ST & 6TH ST,41.644492,-83.519224,,,,,,0
2111,Main & Brint NW,MAIN ST & BRINT RD,41.705486,-83.697291,,,,,,0
2112,Main & Convent NW,MAIN ST & CONVENT BLVD,41.709046,-83.701066,,,,,,0
2113,Main & Convent SW,MAIN ST & CONVENT BLVD,41.708323,-83.700314,,,,,,0
2114,Main & Erie SE,MAIN ST & ERIE ST,41.718517,-83.703145,,,,,,0
2115,Main & Front NE,MAIN ST & FRONT ST,41.648884,-83.523679,,,,,,0
2116,Main & Ian Cove NE,MAIN ST & IAN CV,41.706147,-83.697644,,,,,,0
2117,Main & Maplewood NW,MAIN ST & MAPLEWOOD AVE,41.718291,-83.703279,,,,,,0
2118,Main & Ravine NE,MAIN ST & RAVINE DR,41.710749,-83.701973,,,,,,0
2119,Main & Ravine NW,MAIN ST & RAVINE DR,41.710666,-83.702089,,,,,,0
2120,Main & Ravine SE,MAIN ST & RAVINE DR,41.709226,-83.701004,,,,,,0
2121,Main & Riverside SE,MAIN ST & RIVERSIDE DR,41.650078,-83.524945,,,,,,0
2122,Main & Starr NE,MAIN ST & STARR AVE,41.643934,-83.518386,,,,,,0
2123,Maumee & South NW,MAUMEE AVE & SOUTH AVE,41.631124,-83.550232,,,,,,0
2124,Maumee & Western NW,MAUMEE AVE & WESTERN AVE,41.63475,-83.5503,,,,,,0
2125,Maumee & Walbridge NW,MAUMEE AVE & WALBRIDGE AVE,41.632641,-83.550265,,,,,,0
2126,Mayo & Adrian NW,MAYO ST & ADRIAN ST,41.68478,-83.491981,,,,,,0
2127,Mayo & Adrian SW,MAYO ST & ADRIAN ST,41.684744,-83.491838,,,,,,0
2128,Mayo & Clifford NE,MAYO ST & CLIFFORD ST,41.684098,-83.492854,,,,,,0
2129,Mayo & Clifford SE,MAYO ST & CLIFFORD ST,41.684083,-83.492682,,,,,,0
2130,McCord & Brintwood NW,N MCCORD RD & BRINTWOOD DR,41.70272,-83.704166,,,,,,0
2133,McCord & Charlesgate NW,N MCCORD RD & CHARLESGATE RD,41.701308,-83.70412,,,,,,0
2134,McCord & Charlesgate SE,N MCCORD RD & CHARLESGATE RD,41.70078,-83.703932,,,,,,0
2135,McCord & Coppersmith SE,N MCCORD RD & COPPERSMITH RD,41.697547,-83.70379,,,,,,0
2136,McCord & Gaines Mill NW,N MCCORD RD & GAINES MILL DR,41.698219,-83.703958,,,,,,0
2137,McCord & Margate SE,N MCCORD RD & MARGATE BLVD,41.692437,-83.703504,,,,,,0
2138,McCord & Parkgate,N MCCORD RD & PARKGATE PL,41.702341,-83.703984,,,,,,0
2139,McCord & Sylvania NE,N MCCORD RD & SYLVANIA AVE,41.69056,-83.703428,,,,,,0
2140,McCord & Sylvania NW,N MCCORD RD & SYLVANIA AVE,41.690947,-83.703631,,,,,,0
2141,McCord & Worth NW,N MCCORD RD & WORTH AVE,41.692641,-83.703712,,,,,,0
2142,Madison & 10th NE,MADISON AVE & 10TH ST,41.653898,-83.540024,,,,,,0
2143,Madison & 12th NE,MADISON AVE & 12TH ST,41.654604,-83.541537,,,,,,0
2144,Madison & 15th NE,MADISON AVE & 15TH ST,41.655873,-83.54419,,,,,,0
2145,Madison & 18th NE,MADISON AVE & 18TH ST,41.657052,-83.546643,,,,,,0
2146,Madison & 22nd NE,MADISON AVE & 22ND ST,41.658639,-83.549997,,,,,,0
2147,Madison & 23rd NE,MADISON AVE & 23RD ST,41.659366,-83.551491,,,,,,0
2148,Madison & Woodruff NE,MADISON AVE & W WOODRUFF AVE,41.660074,-83.553016,,,,,,0
2149,Manhattan & Beaumont SW,E MANHATTAN BLVD & BEAUMONT DR,41.687345,-83.518606,,,,,,0
2150,Manhattan & Blackstone NE,E MANHATTAN BLVD & BLACKSTONE DR,41.687506,-83.518658,,,,,,0
2151,Manhattan & Brigham,E MANHATTAN BLVD & BRIGHAM ST,41.687107,-83.522348,,,,,,0
2152,Manhattan & Chrysler,E MANHATTAN BLVD & CHRYSLER DR,41.68804,-83.508145,,,,,,0
2153,Manhattan & Counter SW,E MANHATTAN BLVD & COUNTER ST,41.687862,-83.509354,,,,,,0
2154,Manhattan & Doyle NE,E MANHATTAN BLVD & DOYLE ST,41.687117,-83.524152,,,,,,0
2155,Manhattan & Doyle SW,E MANHATTAN BLVD & DOYLE ST,41.686947,-83.5248,,,,,,0
2156,Manhattan & Harvey SE,E MANHATTAN BLVD & HARVEY ST,41.687611,-83.513811,,,,,,0
2157,Manhattan & Harvey NE,E MANHATTAN BLVD & HARVEY ST,41.687815,-83.512019,,,,,,0
2158,Manhattan & Jeanette SW,E MANHATTAN BLVD & JEANETTE AVE,41.687279,-83.520069,,,,,,0
2159,Manhattan & Kirby SW,E MANHATTAN BLVD & KIRBY PL,41.68651,-83.531257,,,,,,0
2160,Manhattan & Maher NE,E MANHATTAN BLVD & MAHER ST,41.687354,-83.520398,,,,,,0
2161,Manhattan & Manhattan Manor NE,E MANHATTAN BLVD & SUDER AVE,41.689314,-83.493436,,,,,,0
2162,Manhattan & Mulberry NE,E MANHATTAN BLVD & MULBERRY ST,41.686662,-83.531169,,,,,,0
2163,Manhattan & New York NW,E MANHATTAN BLVD & NEW YORK AVE,41.688221,-83.505327,,,,,,0
2164,Manhattan & New York SW,E MANHATTAN BLVD & NEW YORK AVE,41.688114,-83.505645,,,,,,0
2165,Manhattan & Polk NE,E MANHATTAN BLVD & POLK PL,41.686863,-83.528367,,,,,,0
2166,Manhattan & Rock Court NE,E MANHATTAN BLVD & ROCK CT,41.687134,-83.522924,,,,,,0
2167,Manhattan & Regina Manor SW,E MANHATTAN BLVD & N SUMMIT ST,41.689769,-83.487187,,,,,,0
2168,Manhattan & Suder NE,E MANHATTAN BLVD & SUDER AVE,41.689082,-83.494864,,,,,,0
2170,Manhattan & Stickney NE,E MANHATTAN BLVD & STICKNEY AVE,41.687021,-83.526269,,,,,,0
2171,Manhattan & Stickney SW,E MANHATTAN BLVD & STICKNEY AVE,41.686762,-83.527626,,,,,,0
2172,Manhattan & Summit NW,E MANHATTAN BLVD & N SUMMIT ST,41.690167,-83.487184,,,,,,0
2173,Manhattan & Summit SW,E MANHATTAN BLVD & N SUMMIT ST,41.689826,-83.48552,,,,,,0
2174,Manhattan & Terrace NE,E MANHATTAN BLVD & TERRACE DR,41.688849,-83.498306,,,,,,0
2175,Manhattan & Wallace SE,E MANHATTAN BLVD & WALLACE BLVD,41.688354,-83.500906,,,,,,0
2176,Michigan & 4th SW,MICHIGAN AVE & 4TH ST,41.575739,-83.629042,,,,,,0
2178,Miami & Goodwin SW,MIAMI ST & GOODWIN AVE,41.620906,-83.538392,,,,,,0
2181,Miami & Oregon NE,MIAMI ST & OREGON RD,41.621048,-83.538415,,,,,,0
2182,Miami & Tadmore SE,MIAMI ST & TADMORE DR,41.621211,-83.537024,,,,,,0
2183,Michigan & Crystal NE,MICHIGAN AVE & CRYSTAL AVE,41.581547,-83.633601,,,,,,0
2184,Michigan & Edgerton,MICHIGAN AVE & EDGERTON DR,41.500863,-83.726922,,,,,,0
2185,Michigan & Fort SW,MICHIGAN AVE & FORT ST,41.581062,-83.633336,,,,,,0
2186,Michigan & Glenview SW,MICHIGAN AVE & GLEN VIEW DR,41.57686,-83.629925,,,,,,0
2187,Michigan & Karis NE,MICHIGAN AVE & KARIS ST,41.503308,-83.735515,,,,,,0
2188,Michigan & Meadow NE,MICHIGAN AVE & MEADOW AVE,41.579701,-83.632069,,,,,,0
2189,Michigan & Monroe NE,N MICHIGAN ST & MONROE ST,41.651452,-83.541799,,,,,,0
2190,Michigan & Wall SW,MICHIGAN AVE & WALL ST,41.580039,-83.632516,,,,,,0
2191,Michigan & Washington NE,N MICHIGAN ST & WASHINGTON ST,41.650444,-83.542551,,,,,,0
2192,Monroe & 12th NE,MONROE ST & 12TH ST,41.652049,-83.543801,,,,,,0
2193,Monroe & 12th SW,MONROE ST & 12TH ST,41.652384,-83.544761,,,,,,0
2194,Monroe & 14th NE,MONROE ST & 14TH ST,41.65302,-83.545839,,,,,,0
2195,Monroe & 14th SW,MONROE ST & 14TH ST,41.653096,-83.546271,,,,,,0
2196,Monroe & 16th SW,MONROE ST & 16TH ST,41.653974,-83.548174,,,,,,0
2197,Monroe & 18th NE,MONROE ST & 18TH ST,41.65437,-83.548562,,,,,,0
2198,Monroe & 18th SW,MONROE ST & 18TH ST,41.654807,-83.549911,,,,,,0
2199,Monroe & 19th NE,MONROE ST & 19TH ST,41.655039,-83.550011,,,,,,0
2200,Monroe & 21st SW,MONROE ST & 21ST ST,41.656236,-83.552919,,,,,,0
2201,Monroe & 22nd NE,MONROE ST & 22ND ST,41.656567,-83.553213,,,,,,0
2202,Monroe & Acres S,MONROE ST & ACRES RD,41.714148,-83.684552,,,,,,0
2203,Monroe & Algonquin NE,MONROE ST & ALGONQUIN PKWY,41.67873,-83.599642,,,,,,0
2204,Monroe & Algonquin SW,MONROE ST & ALGONQUIN PKWY,41.678763,-83.600287,,,,,,0
2205,Monroe & Bachelor NE,MONROE ST & TROWBRIDGE ST,41.665248,-83.571426,,,,,,0
2206,Monroe & Bachelor SE,MONROE ST & SMEAD AVE,41.665525,-83.572522,,,,,,0
2208,Monroe & Boydson NE,MONROE ST & BOYDSON DR,41.695209,-83.634504,,,,,,0
2209,Monroe & Bentbrook NE,MONROE ST & BENTBROOK DR,41.708914,-83.673491,,,,,,0
2210,Monroe & Cardinal NE,MONROE ST & CARDINAL ST,41.667474,-83.576135,,,,,,0
2211,Monroe & Corey Cove SE,MONROE ST & COREY CV,41.709273,-83.675497,,,,,,0
2212,Monroe & Central NE,MONROE ST & W CENTRAL AVE,41.677068,-83.596261,,,,,,0
2213,Monroe & Central SW,MONROE ST & W CENTRAL AVE,41.678006,-83.598576,,,,,,0
2214,Monroe & Cheltenham SW,MONROE ST & CHELTENHAM RD,41.684822,-83.612975,,,,,,0
2215,Monroe & Collingwood NE,MONROE ST & COLLINGWOOD BLVD,41.657263,-83.554561,,,,,,0
2216,Monroe & Corey NE,MONROE ST & COREY RD,41.710412,-83.678697,,,,,,0
2217,Monroe & Corey NW,MONROE ST & COREY RD,41.712401,-83.681588,,,,,,0
2218,Monroe & Carskaddon NE,MONROE ST & CARSKADDON AVE,41.684969,-83.6128,,,,,,0
2219,Monroe & Detroit NE,MONROE ST & N DETROIT AVE,41.664064,-83.568851,,,,,,0
2220,Monroe & Douglas NE,MONROE ST & DOUGLAS RD,41.680714,-83.603806,,,,,,0
2221,Monroe & Douglas SW,MONROE ST & DOUGLAS RD,41.680913,-83.604728,,,,,,0
2222,Monroe & Doris SW,MONROE ST & DORIS ST,41.676869,-83.59617,,,,,,0
2223,Monroe & Flanders SW,MONROE ST & FLANDERS RD,41.703017,-83.656031,,,,,,0
2224,Monroe & Gasser NE,MONROE ST & GASSER ST,41.669327,-83.580149,,,,,,0
2225,Monroe & Grantley NE,MONROE ST & GRANTLEY RD,41.684209,-83.611289,,,,,,0
2226,Monroe & Glenwood SW,MONROE ST & GLENWOOD AVE,41.660672,-83.562269,,,,,,0
2227,Monroe & Hoehler SW,MONROE ST & HOEHLER DR,41.674492,-83.591151,,,,,,0
2228,Monroe & Horace SW,MONROE ST & HORACE ST,41.663388,-83.567999,,,,,,0
2229,Monroe & Harvest NE,MONROE ST & HARVEST LN,41.694202,-83.632407,,,,,,0
2230,Monroe & Harvest SW,MONROE ST & HARVEST LN,41.694259,-83.633255,,,,,,0
2231,Monroe & Huron NE,MONROE ST & N HURON ST,41.649645,-83.538759,,,,,,0
2233,Monroe & Crary N,MONROE ST & CRARY DR,41.688263,-83.619822,,,,,,0
2234,Monroe & Rohr S,MONROE ST,41.688063,-83.619589,,,,,,0
2235,Monroe & Glasgow,MONROE ST & GLASGOW RD,41.715232,-83.692749,,,,,,0
2236,Monroe Laskey NE,MONROE ST & W LASKEY RD,41.704841,-83.660893,,,,,,0
2237,Monroe & Lawrence NW,MONROE ST & LAWRENCE AVE,41.6623,-83.565098,,,,,,0
2238,Monroe & Lawrence SW,MONROE ST & LAWRENCE AVE,41.662436,-83.565924,,,,,,0
2239,Monclova & Beck NE,MONCLOVA RD & BECK ST,41.558835,-83.676613,,,,,,0
2240,Monclova & May NE,MONCLOVA RD & MAY DR,41.558832,-83.678259,,,,,,0
2241,Monclova & May SW,MONCLOVA RD & MAY DR,41.558693,-83.678962,,,,,,0
2242,Monroe & N Cove NW,MONROE ST & N COVE BLVD,41.67269,-83.587103,,,,,,0
2243,Monroe & N Cove SW,MONROE ST & N COVE BLVD,41.673147,-83.588465,,,,,,0
2244,Monroe & Ontario NE,MONROE ST & N ONTARIO ST,41.650559,-83.54049,,,,,,0
2245,Monroe & Ontario SW,MONROE ST & N ONTARIO ST,41.650843,-83.541574,,,,,,0
2246,Monroe & Parkwood NE,MONROE ST & PARKWOOD AVE,41.658268,-83.556837,,,,,,0
2247,Monroe & Parkwood SW,MONROE ST & PARKWOOD AVE,41.658562,-83.557784,,,,,,0
2248,Monroe & Robinwood NE,MONROE ST & ROBINWOOD AVE,41.659722,-83.559806,,,,,,0
2249,Monroe & Richard Becker NW,MONROE ST & RICHARD L BECKER PL,41.715609,-83.703983,,,,,,0
2250,Monroe & Rathbun SW,MONROE ST & RATHBUN DR,41.675444,-83.593167,,,,,,0
2251,Monroe & Rosedale NE,MONROE ST & ROSEDALE AVE,41.670528,-83.582523,,,,,,0
2252,Monroe & Rosedale SW,MONROE ST & ROSEDALE AVE,41.670788,-83.583394,,,,,,0
2254,Monroe & Royer SW,MONROE ST & ROYER RD,41.696887,-83.638639,,,,,,0
2255,Monroe & Sadalia NE,MONROE ST & SADALIA RD,41.703989,-83.658301,,,,,,0
2256,Monroe & Sadalia SE,MONROE ST & SADALIA RD,41.703923,-83.658614,,,,,,0
2257,Monroe & Sherbrooke NE,MONROE ST & SHERBROOKE RD,41.679684,-83.601711,,,,,,0
2258,Monroe & South Cove NE,MONROE ST & S COVE BLVD,41.671101,-83.583815,,,,,,0
2259,Monroe & South Cove SW,MONROE ST & S COVE BLVD,41.672253,-83.586472,,,,,,0
2260,Monroe & Secor NW,MONROE ST & SECOR RD,41.690378,-83.624323,,,,,,0
2261,Monroe & Silvertown NW,MONROE ST & SILVERTOWN DR,41.708235,-83.671085,,,,,,0
2262,Monroe & Silvertown SW,MONROE ST & SILVERTOWN DR,41.708014,-83.670831,,,,,,0
2263,Monroe & Skelly NE,MONROE ST & SKELLY RD,41.70757,-83.668909,,,,,,0
2265,Monroe & Seckinger NE,MONROE ST & SECKINGER DR,41.687356,-83.61793,,,,,,0
2266,Monroe & Smead NE,MONROE ST & SMEAD AVE,41.666184,-83.573416,,,,,,0
2267,Monroe & Scottwood SW,MONROE ST & SCOTTWOOD AVE,41.659758,-83.560218,,,,,,0
2268,Monroe & Sylvania SW,MONROE ST & W SYLVANIA AVE,41.69093,-83.62592,,,,,,0
2269,Monroe & Talmadge NNW,MONROE ST & TALMADGE RD,41.700886,-83.649558,,,,,,0
2270,Monroe & Talmadge NW,MONROE ST & TALMADGE RD,41.699435,-83.645417,,,,,,0
2271,Monroe & Flanders N,MONROE ST & FLANDERS RD,41.701739,-83.652028,,,,,,0
2272,Monroe & Talmadge SE,MONROE ST & TALMADGE RD,41.698375,-83.64288,,,,,,0
2273,Monroe & Talmadge SW,MONROE ST & W SYLVANIA AVE,41.700514,-83.648928,,,,,,0
2274,Monroe & Trowbridge SW,MONROE ST & TROWBRIDGE ST,41.66848,-83.578546,,,,,,0
2275,Monroe & Woodmont NE,MONROE ST & WOODMONT RD,41.683378,-83.609489,,,,,,0
2276,Monroe & Woodmont SW,MONROE ST & WOODMONT RD,41.683477,-83.610129,,,,,,0
2277,Monroe & Wendover NE,MONROE ST & WENDOVER DR,41.682418,-83.607458,,,,,,0
2278,Monroe & Wendover SW,MONROE ST & WENDOVER DR,41.682362,-83.607776,,,,,,0
2279,Monroe & Whiteford NE,MONROE ST & WHITEFORD RD,41.705733,-83.663484,,,,,,0
2280,Monroe & Whiteford NW,MONROE ST & WHITEFORD RD,41.706751,-83.666419,,,,,,0
2281,Monroe & Whiteford SW,MONROE ST & WHITEFORD RD,41.706727,-83.666764,,,,,,0
2282,Monroe & Willis NE,MONROE ST & WILLIS BLVD,41.692459,-83.628769,,,,,,0
2283,Monroe & Willis SW,MONROE ST & WILLIS BLVD,41.692827,-83.629946,,,,,,0
2284,McTigue & Hal SE,MCTIGUE DR & HAL DR,41.639427,-83.676739,,,,,,0
2285,McTigue & Nebraska SE,MCTIGUE DR & NEBRASKA AVE,41.645479,-83.676799,,,,,,0
2286,McTigue & Sims SE,MCTIGUE DR & SIMS DR,41.641036,-83.676808,,,,,,0
2287,North Cove & Hoehler NE,N COVE BLVD & HOEHLER DR,41.672552,-83.591404,,,,,,0
2288,North Cove & Midwood NE,N COVE BLVD & KENWOOD BLVD,41.671026,-83.594575,,,,,,0
2289,North Cove & ProMedica Pkwy SW,N COVE BLVD & PROMEDICA PKWY,41.670722,-83.594955,,,,,,0
2290,North Cove & Upton NE,N COVE BLVD & UPTON AVE,41.672256,-83.588204,,,,,,0
2291,Nebraska & Ascot SW,NEBRASKA AVE & ASCOT AVE,41.645417,-83.605845,,,,,,0
2292,Nebraska & Brookley NE,NEBRASKA AVE & BROOKLEY BLVD,41.645571,-83.615172,,,,,,0
2293,Nebraska & Brown NE,NEBRASKA AVE & BROWN AVE,41.645578,-83.586683,,,,,,0
2294,Nebraska & Brown SE,NEBRASKA AVE & BROWN AVE,41.645478,-83.58669,,,,,,0
2295,Nebraska & Burbank NE,NEBRASKA AVE & BURBANK DR,41.645544,-83.608744,,,,,,0
2299,Nebraska & Collingwood NW,NEBRASKA AVE & COLLINGWOOD BLVD,41.645403,-83.554997,,,,,,0
2300,Nebraska & Collingwood SE,NEBRASKA AVE & COLLINGWOOD BLVD,41.645279,-83.554202,,,,,,0
2301,Nebraska & City Park NE,NEBRASKA AVE & CITY PARK AVE,41.645413,-83.556879,,,,,,0
2302,Nebraska & City Park SW,NEBRASKA AVE & CITY PARK AVE,41.645312,-83.557864,,,,,,0
2303,Nebraska & Cuthbert NE,NEBRASKA AVE & CUTHBERT RD,41.645593,-83.623189,,,,,,0
2305,Nebraska & Darrow NE,NEBRASKA AVE & DARROW AVE,41.645589,-83.604263,,,,,,0
2306,Nebraska & Detroit NE,NEBRASKA AVE & N DETROIT AVE,41.645607,-83.581652,,,,,,0
2307,Nebraska & Detroit NW,NEBRASKA AVE & N DETROIT AVE,41.645578,-83.584656,,,,,,0
2308,Nebraska & Detroit SW,NEBRASKA AVE & N DETROIT AVE,41.64548,-83.582989,,,,,,0
2309,Nebraska & Detroit SWW,NEBRASKA AVE & N DETROIT AVE,41.645473,-83.584888,,,,,,0
2310,Nebraska & Elizabeth NE,NEBRASKA AVE & ELIZABETH ST,41.645483,-83.559586,,,,,,0
2311,Nebraska & Elizabeth SW,NEBRASKA AVE & ELIZABETH ST,41.645376,-83.560387,,,,,,0
2312,Nebraska & Elysian NE,NEBRASKA AVE & ELYSIAN AVE,41.645522,-83.610635,,,,,,0
2313,Nebraska & Elysian SW,NEBRASKA AVE & ELYSIAN AVE,41.645469,-83.611093,,,,,,0
2314,Nebraska & Ewing NE,NEBRASKA AVE & EWING ST,41.645539,-83.562,,,,,,0
2315,Nebraska & Ewing SW,NEBRASKA AVE & EWING ST,41.645413,-83.562947,,,,,,0
2316,Nebraska & Forest NW,NEBRASKA AVE & FOREST AVE,41.645652,-83.569996,,,,,,0
2317,Nebraska & Forest SW,NEBRASKA AVE & FOREST AVE,41.645508,-83.57021,,,,,,0
2318,Nebraska & Greening NE,2000 NEBRASKA AVE,41.645613,-83.599509,,,,,,0
2319,Nebraska & Greening SW,NEBRASKA AVE & GREENING RD,41.645424,-83.600172,,,,,,0
2320,Nebraska & Hawley NE,NEBRASKA AVE & N HAWLEY ST,41.645658,-83.566887,,,,,,0
2321,Nebraska & Hawley SW,NEBRASKA AVE & N HAWLEY ST,41.645525,-83.567737,,,,,,0
2322,Nebraska & Heidelberg SW,5301 Nebraska Ave,41.645912,-83.673461,,,,,,0
2323,Nebraska & Hinde SW,NEBRASKA AVE & HINDE RD,41.645415,-83.597494,,,,,,0
2324,Nebraska & Hoag NE,NEBRASKA AVE & HOAG ST,41.64564,-83.57174,,,,,,0
2325,Nebraska & Hoag NW,NEBRASKA AVE & HOAG ST,41.645616,-83.574605,,,,,,0
2326,Nebraska & Hoag SW,NEBRASKA AVE & HOAG ST,41.645516,-83.572637,,,,,,0
2328,Nebraska & Junction NE,NEBRASKA AVE & JUNCTION AVE,41.645609,-83.57673,,,,,,0
2329,Nebraska & Junction SE,NEBRASKA AVE & JUNCTION AVE,41.645488,-83.575421,,,,,,0
2330,Nebraska & Junction SW,NEBRASKA AVE & JUNCTION AVE,41.645492,-83.577461,,,,,,0
2331,Nebraska & Kopernik SW,NEBRASKA AVE & KOPERNIK AVE,41.645423,-83.602347,,,,,,0
2332,Nebraska & Liberty Central NE,NEBRASKA AVE & LIBERTY CENTRAL,41.6456,-83.602373,,,,,,0
2333,Nebraska & Marmion SW,NEBRASKA AVE & MARMION AVE,41.645453,-83.591939,,,,,,0
2334,Nebraska & Miller NE,NEBRASKA AVE & N MILLER ST,41.645562,-83.56509,,,,,,0
2335,Nebraska & Miller SW,NEBRASKA AVE & N MILLER ST,41.645465,-83.565832,,,,,,0
2336,Nebraska & Moran NE,NEBRASKA AVE & MORAN AVE,41.645573,-83.619154,,,,,,0
2337,Nebraska & Montrose,NEBRASKA AVE & MONTROSE AVE,41.645573,-83.588838,,,,,,0
2338,Nebraska & Montrose SW,NEBRASKA AVE & MONTROSE AVE,41.645453,-83.589401,,,,,,0
2339,Nebraska & Parkside NW,NEBRASKA AVE & PARKSIDE BLVD,41.64561,-83.595736,,,,,,0
2340,Nebraska & Parkside SW,NEBRASKA AVE & PARKSIDE BLVD,41.645398,-83.595665,,,,,,0
2341,Nebraska & Pulaski NE,NEBRASKA AVE & PULASKI ST,41.645632,-83.57943,,,,,,0
2342,Nebraska & Pulaski SE,NEBRASKA AVE & PULASKI ST,41.645477,-83.579504,,,,,,0
2343,Nebraska & Ranch NE,NEBRASKA AVE & RANCH DR,41.64553,-83.613888,,,,,,0
2344,Nebraska & Ranch SW,NEBRASKA AVE & RANCH DR,41.645474,-83.614383,,,,,,0
2345,Nebraska & Reynolds SW,NEBRASKA AVE & N REYNOLDS RD,41.645893,-83.668505,,,,,,0
2347,Nebraska & Secor NE,NEBRASKA AVE & SECOR RD,41.645596,-83.624123,,,,,,0
2348,Nebraska & Secor SW,NEBRASKA AVE & SECOR RD,41.645525,-83.625275,,,,,,0
2349,Nebraska & Searles NW,NEBRASKA AVE & SEARLES RD,41.645582,-83.621383,,,,,,0
2350,Nebraska & Searles SE,NEBRASKA AVE & SEARLES RD,41.645531,-83.620871,,,,,,0
2351,Nebraska & Underwood SW,NEBRASKA AVE & UNDERWOOD AVE,41.645468,-83.617162,,,,,,0
2352,Nebraska & Wamba SW,NEBRASKA AVE & WAMBA AVE,41.64544,-83.60863,,,,,,0
2353,Nebraska & Waverly NE,NEBRASKA AVE & WAVERLY AVE,41.645568,-83.590212,,,,,,0
2354,Nebraska & Waverly SW,NEBRASKA AVE & WAVERLY AVE,41.645452,-83.59052,,,,,,0
2355,Nebraska & Woodstock SW,NEBRASKA AVE & WOODSTOCK AVE,41.645405,-83.593437,,,,,,0
2356,Nebraska & Westwood NW,NEBRASKA AVE & N WESTWOOD AVE,41.645594,-83.607163,,,,,,0
2357,New Towne Square & Alexitowne SW,NEW TOWNE SQUARE DR & ALEXITOWNE DR,41.723168,-83.545107,,,,,,0
2358,Oak & 1st SE,OAK ST & 1ST ST,41.645832,-83.525517,,,,,,0
2359,Oak & 2nd NW,OAK ST & 2ND ST,41.645884,-83.525636,,,,,,0
2360,Oak & 2nd SE,OAK ST & 2ND ST,41.645031,-83.525484,,,,,,0
2361,Oak & Buczko NW,OAK ST & BUCZKO ST,41.634182,-83.525343,,,,,,0
2362,Oak & Buczko SE,OAK ST & BUCZKO ST,41.632401,-83.52511,,,,,,0
2363,Oak & Earl NW,OAK ST & EARL ST,41.631892,-83.525274,,,,,,0
2364,Oak & Fassett NE,OAK ST & FASSETT ST,41.630085,-83.525044,,,,,,0
2365,Oak & Fassett NW,OAK ST & FASSETT ST,41.62964,-83.525207,,,,,,0
2366,Oak & Greenwood NW,OAK ST & GREENWOOD AVE,41.642121,-83.525593,,,,,,0
2367,Oak & Hathaway NW,OAK ST & HATHAWAY ST,41.627838,-83.52515,,,,,,0
2368,Oak & Hathaway SE,OAK ST & HATHAWAY ST,41.627459,-83.524999,,,,,,0
2369,Oak & Jay NW,OAK ST & JAY ST,41.638408,-83.525418,,,,,,0
2370,Oak & Lyle NW,OAK ST & RICHFORD ST,41.623592,-83.524968,,,,,,0
2371,Oak & Milton SE,OAK ST & MILTON ST,41.63787,-83.52528,,,,,,0
2372,Oak & Nevada SW,OAK ST & NEVADA ST,41.639605,-83.525486,,,,,,0
2373,Oak & Nevada SE,OAK ST & NEVADA ST,41.639265,-83.525309,,,,,,0
2374,Oak & Navarre NW,OAK ST & NAVARRE AVE,41.636478,-83.525365,,,,,,0
2375,Oak & Oakdale NW,OAK ST & OAKDALE AVE,41.621919,-83.524916,,,,,,0
2376,Oak & Rall NE,OAK ST & RALL ST,41.625661,-83.524942,,,,,,0
2377,Oak & Rall NW,OAK ST & RALL ST,41.625595,-83.525059,,,,,,0
2378,Oak & Starr NW,OAK ST & STARR AVE,41.643731,-83.525569,,,,,,0
2379,Oak & Starr SE,OAK ST & STARR AVE,41.642859,-83.525392,,,,,,0
2380,Oak & Viking SE,OAK ST & VIKING ST,41.636789,-83.525228,,,,,,0
2389,Oak Grove & Douglas NE,OAK GROVE PL & DOUGLAS RD,41.700787,-83.601784,,,,,,0
2390,Oak Grove & Douglas SE,OAK GROVE PL & DOUGLAS RD,41.700685,-83.600031,,,,,,0
2391,Oak Grove & Tremainsville NW,OAK GROVE PL & TREMAINSVILLE RD,41.701555,-83.598504,,,,,,0
2392,Oak Grove & Tremainsville SW,OAK GROVE PL & TREMAINSVILLE RD,41.700738,-83.599629,,,,,,0
2393,Oakdale & Akron NE,OAKDALE AVE & AKRON ST,41.621783,-83.52278,,,,,,0
2394,Oakdale & Bond SW,OAKDALE AVE & BOND ST,41.621772,-83.521648,,,,,,0
2395,Oakdale & Lebanon NE,OAKDALE AVE & LEBANON ST,41.621872,-83.518351,,,,,,0
2396,Oakdale & Lebanon SW,OAKDALE AVE & LEBANON ST,41.621802,-83.519021,,,,,,0
2397,Oakdale & Milroy NE,OAKDALE AVE & MILROY ST,41.621905,-83.516302,,,,,,0
2398,Oakdale & Milroy SW,OAKDALE AVE & MILROY ST,41.621839,-83.516891,,,,,,0
2399,Oakdale & Oak NE,OAKDALE AVE & OAK ST,41.621797,-83.524066,,,,,,0
2400,Oakdale & Oakmont NE,OAKDALE AVE & OAKMONT ST,41.621843,-83.520416,,,,,,0
2401,Oakdale & Schomberg SW,OAKDALE AVE & SCHOMBERG ST,41.621798,-83.52037,,,,,,0
2402,Ottawa River & 116th NW,OTTAWA RIVER RD & 116TH ST,41.712542,-83.485109,,,,,,0
2403,Ottawa River & 117th NE,OTTAWA RIVER RD & 117TH ST,41.712391,-83.485164,,,,,,0
2404,Ottawa River & 287 NE,OTTAWA RIVER RD & 287TH ST,41.710819,-83.490377,,,,,,0
2405,Ottawa River & 287th SW,OTTAWA RIVER RD & 287TH ST,41.710435,-83.49076,,,,,,0
2406,Ottawa River & Ottawa Trail NE,OTTAWA RIVER RD & OTTAWA TRAIL DR,41.708888,-83.495071,,,,,,0
2407,Ottawa River & Ottawa Trail SE,OTTAWA RIVER RD & OTTAWA TRAIL DR,41.708808,-83.495167,,,,,,0
2408,Old Trail & Wayne SE,OLD TRAIL RD & W WAYNE ST,41.558186,-83.673842,,,,,,0
2409,Oakwood  & Calumet NE,OAKWOOD AVE & CALUMET AVE,41.656247,-83.585013,,,,,,0
2410,Oakwood & Clinton NE,OAKWOOD AVE & CLINTON ST,41.656313,-83.581996,,,,,,0
2411,Oakwood & Clinton SE,OAKWOOD AVE & CLINTON ST,41.656223,-83.583722,,,,,,0
2412,Oakwood & Collingwood SW,OAKWOOD AVE & COLLINGWOOD BLVD,41.656646,-83.556569,,,,,,0
2413,Oakwood & Detroit SW,OAKWOOD AVE & N DETROIT AVE,41.656306,-83.576306,,,,,,0
2414,Oakwood & Forest SW,OAKWOOD AVE & FOREST AVE,41.656407,-83.569976,,,,,,0
2415,Oakwood & Glenwood SW,OAKWOOD AVE & GLENWOOD AVE,41.656549,-83.562199,,,,,,0
2416,Oakwood & Hoag SE,OAKWOOD AVE & HOAG ST,41.656384,-83.572227,,,,,,0
2417,Oakwood & Joffre SW,OAKWOOD AVE & JOFFRE AVE,41.656183,-83.586919,,,,,,0
2418,Oakwood & Lawrence SW,OAKWOOD AVE & LAWRENCE AVE,41.65647,-83.564797,,,,,,0
2419,Oakwood & Parkdale NE,OAKWOOD AVE & PARKDALE AVE,41.656227,-83.587112,,,,,,0
2420,Oakwood & Smead SE,OAKWOOD AVE & SMEAD AVE,41.656253,-83.580197,,,,,,0
2421,Oakwood & Waite SW,OAKWOOD AVE & WAITE AVE,41.65644,-83.566616,,,,,,0
2422,Pelham & Cheltenham NE,PELHAM RD & CHELTENHAM RD,41.666861,-83.609683,,,,,,0
2423,Pelham & Douglas SW,PELHAM RD & DOUGLAS RD,41.666803,-83.609443,,,,,,0
2426,Phillips & Fairview NE,PHILLIPS AVE & FAIRVIEW DR,41.691361,-83.561046,,,,,,0
2427,Phillips & Fairview SE,PHILLIPS AVE & FAIRVIEW DR,41.691706,-83.562946,,,,,,0
2428,Perrysburg Holland & Holland Sylvania NE,PERRYSBURG HOLLAND RD & S HOLLAND SYLVANIA RD,41.599404,-83.688886,,,,,,0
2429,Phillips & Haverhill NE,PHILLIPS AVE & HAVERHILL DR,41.691891,-83.562871,,,,,,0
2430,Phillips & Peru NE,PHILLIPS AVE & PERU ST,41.690505,-83.557755,,,,,,0
2431,Phillips & Peru SE,PHILLIPS AVE & PERU ST,41.690349,-83.557743,,,,,,0
2432,Phillips & Vermaas SW,PHILLIPS AVE & VERMAAS AVE,41.691198,-83.561053,,,,,,0
2433,Parkside & Avondale SE,PARKSIDE BLVD & AVONDALE AVE,41.647599,-83.594889,,,,,,0
2434,Parkside & Avondale SW,PARKSIDE BLVD & AVONDALE AVE,41.649032,-83.595359,,,,,,0
2436,Parkside & Nebraska NW,PARKSIDE BLVD & NEBRASKA AVE,41.645775,-83.595306,,,,,,0
2439,Parkside & Midway Plaisance NE,PARKSIDE BLVD,41.651238,-83.594928,,,,,,0
2440,Parkside & Richmond NW,PARKSIDE BLVD,41.659511,-83.59507,,,,,,0
2442,Parkside & Woodruff NW,PARKSIDE BLVD,41.660584,-83.595175,,,,,,0
2443,ProMedica & Hughes SE,PROMEDICA PKWY,41.673983,-83.593931,,,,,,0
2444,Pontiac & Erie NE,PONTIAC ST,41.682381,-83.492959,,,,,,0
2445,Pontiac & Summit SW,PONTIAC ST,41.682178,-83.493057,,,,,,0
2448,Post & Detroit NW,POST ST,41.671889,-83.565907,,,,,,0
2450,Reynolds & Angola NW,S REYNOLDS RD,41.628118,-83.664614,,,,,,0
2451,Reynolds & South SE,S REYNOLDS RD,41.630601,-83.664357,,,,,,0
2452,Reynolds & Brownstone NW,S REYNOLDS RD,41.608501,-83.664911,,,,,,0
2453,Reynolds & Brownstone SE,S REYNOLDS RD,41.607719,-83.664583,,,,,,0
2454,Reynolds & Cheshire NW,S REYNOLDS RD,41.641243,-83.664618,,,,,,0
2455,Reynolds & Claxton NW,N REYNOLDS RD,41.663172,-83.667855,,,,,,0
2456,Reynolds & Darlene NW,N REYNOLDS RD,41.650985,-83.664724,,,,,,0
2457,Reynolds & Dorr NW,N REYNOLDS RD & DORR ST,41.653833,-83.66529,,,,,,0
2458,Reynolds & Florita NW,N REYNOLDS RD & FLORITA DR,41.657041,-83.667573,,,,,,0
2459,Reynolds & Kellogg NW,N REYNOLDS RD & KELLOGG RD,41.647759,-83.664689,,,,,,0
2460,Reynolds & Mardone SE,S REYNOLDS RD & MARDONE DR,41.621217,-83.664434,,,,,,0
2461,Reynolds & Marriat NW,N REYNOLDS RD & MARRIAT RD,41.6607,-83.667743,,,,,,0
2462,Reynolds & Melvin SE,S REYNOLDS RD & MELVIN DR,41.617087,-83.664466,,,,,,0
2463,Reynolds & Marybrook NW,S REYNOLDS RD & MARYBROOK DR,41.614407,-83.664755,,,,,,0
2464,Reynolds & Nebraska SSW,N REYNOLDS RD & NEBRASKA AVE,41.643462,-83.664642,,,,,,0
2465,Reynolds & Nebraska SW,N REYNOLDS RD & NEBRASKA AVE,41.645419,-83.664659,,,,,,0
2466,Reynolds & Norwich NW,S REYNOLDS RD & NORWICH RD,41.621477,-83.664722,,,,,,0
2467,Reynolds & Rondeau NW,N REYNOLDS RD & RONDEAU ST,41.664749,-83.667827,,,,,,0
2468,Reynolds & South SEE,S REYNOLDS RD & SOUTH AVE,41.629989,-83.664351,,,,,,0
2469,Reynolds & South SW,S REYNOLDS RD & SOUTH AVE,41.630502,-83.664606,,,,,,0
2470,Reynolds & Southwyck NE,S REYNOLDS RD & SOUTHWYCK BLVD,41.605285,-83.66453,,,,,,0
2471,Reynolds & Southwyck NW,S REYNOLDS RD & SOUTHWYCK BLVD,41.605667,-83.664866,,,,,,0
2472,Reynolds & Willcrest SE,S REYNOLDS RD & N WILLCREST DR,41.613489,-83.664543,,,,,,0
2475,Richards & Overlook NW,RICHARDS RD & OVERLOOK BLVD,41.651844,-83.640838,,,,,,0
2477,Richards & Victory NW,RICHARDS RD & VICTORY AVE,41.648836,-83.640665,,,,,,0
2478,River & Askin NW,RIVER RD & ASKIN ST,41.574866,-83.624762,,,,,,0
2479,River & Askin SW,RIVER RD & ASKIN ST,41.574672,-83.624716,,,,,,0
2480,River & Brookford NW,RIVER RD & BROOKFORD DR,41.601357,-83.59328,,,,,,0
2481,River & Brookford SE,RIVER RD & BROOKFORD DR,41.600587,-83.593752,,,,,,0
2482,River & Brookford SW,RIVER RD & BROOKFORD DR,41.600405,-83.594024,,,,,,0
2483,River & Bittersweet NW,RIVER RD & BITTERSWEET DR,41.588315,-83.605233,,,,,,0
2484,River & Burroughs SE,RIVER RD & BURROUGHS DR,41.596756,-83.596713,,,,,,0
2485,River & Carisbrook NW,RIVER RD & E CARISBROOK DR,41.57871,-83.616218,,,,,,0
2486,River & Carew NE,RIVER RD & CAREW LN,41.57756,-83.618701,,,,,,0
2487,River & Chevy Chase NE,RIVER RD & CHEVY CHASE LN,41.594349,-83.598615,,,,,,0
2488,River & Chevy Chase NW,RIVER RD & CHEVY CHASE LN,41.593511,-83.599365,,,,,,0
2489,River & Chevy Chase SE,RIVER RD & CHEVY CHASE LN,41.593174,-83.599587,,,,,,0
2490,River & Central Grove NW,RIVER RD & CENTRAL GRV,41.603057,-83.592938,,,,,,0
2491,River & Central Grove SE,RIVER RD & CENTRAL GRV,41.602738,-83.592886,,,,,,0
2492,River & Colwell NW,RIVER RD & COLWELL ST,41.573235,-83.63059,,,,,,0
2493,River & Colwell SE,RIVER RD & COLWELL ST,41.573204,-83.630043,,,,,,0
2494,River & Copland NE,RIVER RD & COPLAND BLVD,41.59259,-83.601121,,,,,,0
2495,River & Detroit NW,RIVER RD & DETROIT AVE,41.575983,-83.62212,,,,,,0
2496,River & Flint SW,RIVER RD & FLINT DR,41.590435,-83.603826,,,,,,0
2498,River & Glendale SW,RIVER RD & ROHR BLVD,41.611784,-83.587601,,,,,,0
2499,River & Grand Valley NE,RIVER RD & GRAND VALLEY DR,41.581204,-83.610883,,,,,,0
2500,River & Hemlock SE,RIVER RD & HEMLOCK DR,41.585186,-83.60707,,,,,,0
2501,River & Hemlock SW,RIVER RD & HEMLOCK DR,41.585393,-83.607063,,,,,,0
2502,River & Inwood NW,RIVER RD & INWOOD PL,41.579448,-83.614603,,,,,,0
2503,River & Johnson NW,RIVER RD & JOHNSON ST,41.572739,-83.635498,,,,,,0
2504,River & Juniper SW,RIVER RD & JUNIPER DR,41.587083,-83.606032,,,,,,0
2505,River & Kumler NW,RIVER RD & KUMLER DR,41.580746,-83.61182,,,,,,0
2506,River & Key NE,RIVER RD & KEY ST,41.571814,-83.640376,,,,,,0
2507,River & Key SE,RIVER RD & KEY ST,41.569727,-83.643091,,,,,,0
2508,River & Midland NE,RIVER RD & MIDLAND AVE,41.589999,-83.604023,,,,,,0
2509,River & Midland NW,RIVER RD & MIDLAND AVE,41.589215,-83.604634,,,,,,0
2510,River & Midland SE,RIVER RD & MIDLAND AVE,41.588449,-83.605035,,,,,,0
2511,River & Marengo SE,RIVER RD & MARENGO ST,41.606715,-83.592382,,,,,,0
2512,River & Michigan NE,RIVER RD & MICHIGAN AVE,41.573813,-83.62698,,,,,,0
2513,River & Michigan SW,RIVER RD & MICHIGAN AVE,41.573472,-83.627635,,,,,,0
2514,River & Overbrook SE,RIVER RD & OVERBROOK DR,41.585946,-83.606602,,,,,,0
2515,River & Phillips NE,RIVER RD & PHILLIPS ST,41.573426,-83.628997,,,,,,0
2516,River & River Bend SW,RIVER RD & RIVER BEND LN,41.577388,-83.618858,,,,,,0
2517,River & River Glen SW,RIVER RD & RIVER GLEN RD,41.579387,-83.614526,,,,,,0
2518,River & Rohr SE,RIVER RD & ROHR BLVD,41.610748,-83.589586,,,,,,0
2519,River & Ransom NE,RIVER RD & RANSOM ST,41.573011,-83.632915,,,,,,0
2520,River & Ransom SW,RIVER RD & RANSOM ST,41.572748,-83.634305,,,,,,0
2521,River & Sandalwood NE,RIVER RD & SANDALWOOD AVE,41.583446,-83.608159,,,,,,0
2522,River & Sandalwood NW,RIVER RD & SANDALWOOD AVE,41.583723,-83.608088,,,,,,0
2523,River & Sherwood NW,RIVER RD & SHERWOOD AVE,41.604952,-83.592639,,,,,,0
2524,River & Sherwood SE,RIVER RD & SHERWOOD AVE,41.604272,-83.592667,,,,,,0
2525,River & TCC NE,RIVER RD & CHEVY CHASE LN,41.594881,-83.598326,,,,,,0
2526,River & TCC NEE,RIVER RD & BURROUGHS DR,41.596754,-83.59686,,,,,,0
2527,River & TCC SE,RIVER RD & BURROUGHS DR,41.598234,-83.595569,,,,,,0
2528,River & Tamarack NE,RIVER RD & TAMARACK DR,41.584531,-83.607467,,,,,,0
2529,River & Tamarack NW,RIVER RD & TAMARACK DR,41.584392,-83.607687,,,,,,0
2530,River & Townley SW,RIVER RD & TOWNLEY RD,41.598009,-83.595853,,,,,,0
2531,River & Tappan NE,RIVER RD & TAPPAN ST,41.572877,-83.634299,,,,,,0
2532,River & Turnpike NW,RIVER RD & SANDALWOOD AVE,41.582397,-83.609107,,,,,,0
2533,River & Wall SE,RIVER RD & WALL ST,41.572978,-83.632388,,,,,,0
2534,River & William NW,RIVER RD & E WILLIAM ST,41.56777,-83.64523,,,,,,0
2535,River & William SE,RIVER RD & E WILLIAM ST,41.567003,-83.645449,,,,,,0
2536,River & Westmeyer NW,RIVER RD & WESTMEYER ST,41.608545,-83.591789,,,,,,0
2537,River & Westmeyer SE,RIVER RD & WESTMEYER ST,41.607845,-83.591974,,,,,,0
2538,South Cove & Auburn SE,S COVE BLVD & AUBURN AVE,41.67314,-83.579142,,,,,,0
2539,South Cove & Ayers SW,S COVE BLVD & AYERS AVE,41.673695,-83.574756,,,,,,0
2540,Schneider & Hinsdale SW,SCHNEIDER RD & HINSDALE DR,41.608472,-83.610853,,,,,,0
2541,Schneider & Watkins NE,SCHNEIDER RD & WATKINS DR,41.608513,-83.608091,,,,,,0
2542,Schneider & Watkins SW,SCHNEIDER RD & WATKINS DR,41.608452,-83.608745,,,,,,0
2543,Schreier & Island View NW,SCHREIER RD & ISLAND VIEW AVE,41.597945,-83.57043,,,,,,0
2544,South Cove & Thatcher SW,S COVE BLVD & THATCHER DR,41.673284,-83.577516,,,,,,0
2545,Suder & Abygail SE,SUDER AVE & ABYGAIL TRL,41.704197,-83.498363,,,,,,0
2546,Suder & Allendale NE,SUDER AVE & ALLENDALE DR,41.699772,-83.497383,,,,,,0
2547,Suder & East Harbor SE,SUDER AVE & E HARBOR DR,41.719576,-83.497098,,,,,,0
2548,Suder & Erie NE,SUDER AVE & N ERIE ST,41.685234,-83.489557,,,,,,0
2549,Suder & Greenwich NE,SUDER AVE & GREENWICH LN,41.712838,-83.499684,,,,,,0
2550,Suder & Greenwich NW,SUDER AVE & GREENWICH LN,41.713026,-83.499749,,,,,,0
2551,Suder Kroger,SUDER AVE & ABYGAIL TRL,41.706052,-83.498856,,,,,,0
2552,Suder & Lehman NW,SUDER AVE & LEHMAN AVE,41.702135,-83.497998,,,,,,0
2553,Suder & Lehman SE,SUDER AVE & LEHMAN AVE,41.701415,-83.497731,,,,,,0
2554,Suder & Malabar NW,SUDER AVE & MALABAR DR,41.719588,-83.497244,,,,,,0
2555,Suder & Malabar SE,SUDER AVE & MALABAR DR,41.718448,-83.497526,,,,,,0
2556,Suder & Malabar SW,SUDER AVE & MALABAR DR,41.718694,-83.497535,,,,,,0
2557,Suder & Manhattan NW,SUDER AVE & E MANHATTAN BLVD,41.689408,-83.495252,,,,,,0
2558,Suder & Northwyck NE,SUDER AVE & NORTHWYCK DR,41.69859,-83.497184,,,,,,0
2559,Suder & Northwyck SW,SUDER AVE & NORTHWYCK DR,41.69838,-83.497185,,,,,,0
2560,Suder & Ottawa River NW,SUDER AVE & OTTAWA RIVER RD,41.709775,-83.49967,,,,,,0
2561,Suder & Ottawa River SE,SUDER AVE & OTTAWA RIVER RD,41.70632,-83.498805,,,,,,0
2562,Suder & Shoreland SE,SUDER AVE & SHORELAND AVE,41.7097,-83.499522,,,,,,0
2563,Suder & South Ottawa Cove SW,SUDER AVE & S OTTAWA COVE DR,41.715384,-83.498793,,,,,,0
2564,Suder & Thornbrook SE,SUDER AVE & THORNBROOK TRL,41.71632,-83.498399,,,,,,0
2565,Suder & Willow Brook NW,SUDER AVE & WILLOW BROOK LN,41.69141,-83.495681,,,,,,0
2566,Suder & Willow Brook SE,SUDER AVE & WILLOW BROOK LN,41.691154,-83.495563,,,,,,0
2567,Suder & Wiler SE,SUDER AVE & WILER LN,41.695025,-83.49637,,,,,,0
2568,Suder & Wiler SSE,SUDER AVE & WILER LN,41.693771,-83.496153,,,,,,0
2569,Suder & Wiler SW,SUDER AVE & WILER LN,41.693726,-83.496181,,,,,,0
2571,Seaman & Poplar NE,SEAMAN ST & POPLAR ST,41.651101,-83.494485,,,,,,0
2573,Seaman & Reed NE,SEAMAN ST & REED ST,41.65103,-83.497016,,,,,,0
2575,Seaman & Van Buren NE,SEAMAN ST & VAN BUREN AVE,41.651155,-83.490913,,,,,,0
2579,Secor & Bancroft NW,SECOR RD & W BANCROFT ST,41.663629,-83.622341,,,,,,0
2580,Secor & Bancroft SE,SECOR RD & W BANCROFT ST,41.662385,-83.622102,,,,,,0
2581,Secor & Brantford SE,SECOR RD & BRANTFORD RD,41.664385,-83.622179,,,,,,0
2582,Secor & Brookside SE,SECOR RD & BROOKSIDE RD,41.659278,-83.621972,,,,,,0
2583,Secor & Brookside SW,SECOR RD & BROOKSIDE RD,41.659325,-83.622195,,,,,,0
2584,Secor & Central NE,SECOR RD & W CENTRAL AVE,41.679122,-83.622606,,,,,,0
2585,Secor & Central NW,SECOR RD & W CENTRAL AVE,41.679757,-83.62288,,,,,,0
2586,Secor & Central SE,SECOR RD & W CENTRAL AVE,41.675862,-83.622521,,,,,,0
2587,Secor & Christie NW,SECOR RD & CHRISTIE BLVD,41.674111,-83.622646,,,,,,0
2588,Secor & Christie SE,SECOR RD & CHRISTIE BLVD,41.672572,-83.622459,,,,,,0
2591,Secor & Corydon NW,SECOR RD & CORYDON DR,41.695833,-83.623469,,,,,,0
2592,Secor & Corydon SE,SECOR RD & CORYDON DR,41.695064,-83.623229,,,,,,0
2593,Secor & Darlington NE,SECOR RD & DARLINGTON RD,41.668647,-83.62234,,,,,,0
2594,Secor & Darlington SW,SECOR RD & DARLINGTON RD,41.668498,-83.622445,,,,,,0
2595,Secor & Dorr SW,SECOR RD & DORR ST,41.655028,-83.62201,,,,,,0
2596,Secor & Eastbrook NW,SECOR RD & EASTBROOK DR,41.693677,-83.623407,,,,,,0
2597,Secor & Eastbrook SE,SECOR RD & EASTBROOK DR,41.692745,-83.623144,,,,,,0
2598,Secor & Executive NW,SECOR RD & EXECUTIVE PKWY,41.684737,-83.623079,,,,,,0
2599,Secor & Executive SE,SECOR RD & EXECUTIVE PKWY,41.681026,-83.62269,,,,,,0
2600,Secor & Executive SW,SECOR RD & EXECUTIVE PKWY,41.681202,-83.622968,,,,,,0
2601,Secor & Forest Grove SE,SECOR RD & FOREST GROVE DR,41.697683,-83.623312,,,,,,0
2602,Secor & Forest Grove SW,SECOR RD & FOREST GROVE DR,41.697754,-83.623531,,,,,,0
2603,Secor & Gracewood NW,SECOR RD & GRACEWOOD RD,41.70265,-83.623703,,,,,,0
2604,Secor & Gracewood SE,SECOR RD & GRACEWOOD RD,41.701959,-83.623455,,,,,,0
2605,Secor & Hughes NW,SECOR RD & HUGHES BLVD,41.676035,-83.622766,,,,,,0
2606,Secor & Kenwood NW,SECOR RD & KENWOOD BLVD,41.671047,-83.622513,,,,,,0
2607,Secor & Kenwood SE,SECOR RD & KENWOOD BLVD,41.670307,-83.622382,,,,,,0
2612,Secor & Laskey SE,SECOR RD & W LASKEY RD,41.704962,-83.623584,,,,,,0
2613,Secor & Laskey SW,SECOR RD & W LASKEY RD,41.705626,-83.623816,,,,,,0
2617,Secor & Monroe NW,SECOR RD & MONROE ST,41.690397,-83.623328,,,,,,0
2618,Secor & Monroe SW,SECOR RD & MONROE ST,41.68919,-83.623248,,,,,,0
2619,Secor & Oak Grove NW,SECOR RD & OAK GROVE PL,41.700124,-83.623614,,,,,,0
2620,Secor & Oak Grove SE,SECOR RD & OAK GROVE PL,41.699732,-83.623382,,,,,,0
2621,Secor & Pelham NW,SECOR RD & PELHAM RD,41.667181,-83.622386,,,,,,0
2622,Secor & Pelham SE,SECOR RD & PELHAM RD,41.666305,-83.622251,,,,,,0
2623,Secor & Queenswood SE,SECOR RD & QUEENSWOOD BLVD,41.683932,-83.622822,,,,,,0
2625,Secor & Valleston SE,SECOR RD & VALLESTON PKWY,41.655432,-83.621845,,,,,,0
2627,Sherwood & Beverly NE,SHERWOOD AVE & BEVERLY DR,41.604668,-83.599984,,,,,,0
2628,Sherwood & Beverly SE,SHERWOOD AVE & BEVERLY DR,41.60459,-83.600056,,,,,,0
2629,Sherwood & Detroit NE,SHERWOOD AVE & S DETROIT AVE,41.604691,-83.60643,,,,,,0
2630,Sherwood & Island NE,SHERWOOD AVE & ISLAND AVE,41.604626,-83.594228,,,,,,0
2631,Sherwood & Island SW,SHERWOOD AVE & ISLAND AVE,41.604585,-83.595375,,,,,,0
2632,Sherman & Chestnut SW,SHERMAN ST & CHESTNUT ST,41.66906,-83.531978,,,,,,0
2633,Sherman & Elm NE,SHERMAN ST & ELM ST,41.66862,-83.532984,,,,,,0
2634,Sherman & Mulberry NE,SHERMAN ST & MULBERRY ST,41.669876,-83.530167,,,,,,0
2635,Sherman & Peck SW,SHERMAN ST & PECK ST,41.66991,-83.529921,,,,,,0
2636,Sherwood & Mapleway NE,SHERWOOD AVE & MAPLEWAY DR,41.604673,-83.603979,,,,,,0
2637,Sherwood & Wildwood NE,SHERWOOD AVE & WILDWOOD BLVD,41.60472,-83.604772,,,,,,0
2638,Smead & Fernwood NW,SMEAD AVE & FERNWOOD AVE,41.65474,-83.580425,,,,,,0
2639,Smead & Fernwood SE,SMEAD AVE & FERNWOOD AVE,41.654484,-83.580307,,,,,,0
2641,Smead & Oakwood NW,SMEAD AVE & OAKWOOD AVE,41.656589,-83.580433,,,,,,0
2642,Smead & Oakwood SE,SMEAD AVE & OAKWOOD AVE,41.656043,-83.580313,,,,,,0
2643,Smead & Pinewood NW,SMEAD AVE & PINEWOOD AVE,41.651287,-83.580484,,,,,,0
2644,Smead & Pinewood SE,SMEAD AVE & PINEWOOD AVE,41.650892,-83.580327,,,,,,0
2645,Smead & Palmwood SE,SMEAD AVE & PALMWOOD AVE,41.653741,-83.580326,,,,,,0
2646,Smead & Woodland NW,SMEAD AVE & WOODLAND AVE,41.652115,-83.580482,,,,,,0
2647,Smead & Woodland SE,SMEAD AVE & WOODLAND AVE,41.651838,-83.580342,,,,,,0
2648,South & Broadway NE,SOUTH AVE & BROADWAY ST,41.630849,-83.555191,,,,,,0
2649,South & Baden SW,SOUTH AVE & BADEN ST,41.630789,-83.562264,,,,,,0
2650,South & Brighton SW,SOUTH AVE & BRIGHTON AVE,41.630682,-83.581781,,,,,,0
2651,South & Covdova NE,SOUTH AVE & CORDOVA ST,41.630841,-83.552179,,,,,,0
2652,South & Chapin SW,SOUTH AVE & CHAPIN ST,41.630762,-83.55988,,,,,,0
2653,South & Carlton NE,SOUTH AVE & CARLTON ST,41.630771,-83.578145,,,,,,0
2654,South & Carlton SW,SOUTH AVE & CARLTON ST,41.63077,-83.578375,,,,,,0
2656,South & Danberry NE,SOUTH AVE & DANBERRY ST,41.630728,-83.595951,,,,,,0
2657,South & Decatur NE,SOUTH AVE & DECATUR ST,41.630747,-83.593103,,,,,,0
2658,South & Decatur SW,SOUTH AVE & DECATUR ST,41.630608,-83.594295,,,,,,0
2659,South & El Centro NW,SOUTH AVE & EL CENTRO DR,41.631169,-83.655501,,,,,,0
2661,South & Geneva SW,SOUTH AVE & GENEVA AVE,41.630671,-83.585698,,,,,,0
2662,South & Griffin NE,SOUTH AVE & GRIFFIN ST,41.630894,-83.568004,,,,,,0
2663,South & Griffin SW,SOUTH AVE & GRIFFIN ST,41.630792,-83.568928,,,,,,0
2664,South & Hampton NE,SOUTH AVE & HAMPTON AVE,41.630765,-83.582104,,,,,,0
2665,South & Hampton SW,SOUTH AVE & HAMPTON AVE,41.630666,-83.583614,,,,,,0
2667,South & Hiett SW,SOUTH AVE & HIETT AVE,41.630791,-83.572665,,,,,,0
2668,South & La Jolla NE,SOUTH AVE & LA JOLLA DR,41.63108,-83.651704,,,,,,0
2669,South & Lynnhaven SW,SOUTH AVE & LYNNHAVEN DR,41.630653,-83.589855,,,,,,0
2671,South & Nicholas NE,SOUTH AVE & NICHOLAS ST,41.630752,-83.579062,,,,,,0
2672,South & Nicholas SW,SOUTH AVE & NICHOLAS ST,41.630673,-83.579566,,,,,,0
2673,South & Ogden NE,SOUTH AVE & OGDEN AVE,41.630768,-83.583428,,,,,,0
2674,South & Reynolds NE,SOUTH AVE & S REYNOLDS RD,41.631301,-83.663812,,,,,,0
2675,South & Southgate NE,SOUTH AVE & SOUTHGATE CIRCLE DR,41.631008,-83.647243,,,,,,0
2676,South & Southgate NW,SOUTH AVE & SOUTHGATE CIRCLE DR,41.631046,-83.64921,,,,,,0
2678,South & Shasta NE,SOUTH AVE & SHASTA DR,41.630768,-83.590239,,,,,,0
2679,South & San Jose NE,SOUTH AVE & SAN JOSE DR,41.631224,-83.658067,,,,,,0
2681,South & Spencer NW,SOUTH AVE & SPENCER ST,41.630847,-83.574787,,,,,,0
2682,South & Stebbins NE,SOUTH AVE & STEBBINS ST,41.630869,-83.564396,,,,,,0
2683,South & Stebbins SW,SOUTH AVE & STEBBINS ST,41.630792,-83.565318,,,,,,0
2684,South & Toronto NE,SOUTH AVE & TORONTO AVE,41.630775,-83.585369,,,,,,0
2685,South & Thayer NW,SOUTH AVE & THAYER ST,41.630878,-83.563269,,,,,,0
2686,South & Wendell NE,SOUTH AVE & WENDELL ST,41.630762,-83.576648,,,,,,0
2687,South & Wendell SW,SOUTH AVE & WENDELL ST,41.630679,-83.577093,,,,,,0
2688,South & Woodsdale NE,SOUTH AVE & WOODSDALE AVE,41.630767,-83.586623,,,,,,0
2689,South & Westhaven NE,SOUTH AVE & S WESTHAVEN RD,41.631267,-83.66165,,,,,,0
2691,South & Walsh SW,SOUTH AVE & WALSH ST,41.630628,-83.595996,,,,,,0
2692,Southwyck & Cheyenne SW,SOUTHWYCK BLVD & CHEYENNE BLVD,41.599842,-83.669181,,,,,,0
2693,Southwyck N,SOUTHWYCK BLVD & BROWNSTONE BLVD,41.605382,-83.667517,,,,,,0
2694,Southwyck W,SOUTHWYCK BLVD & CHEYENNE BLVD,41.602275,-83.671314,,,,,,0
2695,South & Wenz NW,SOUTH AVE & WENZ RD,41.630985,-83.645677,,,,,,0
2697,Spencer & Brighton NW,SPENCER ST & BRIGHTON AVE,41.623751,-83.581095,,,,,,0
2698,Spencer & Colburn NW,SPENCER ST & COLBURN ST,41.630279,-83.574621,,,,,,0
2699,Spencer & Carlton NW,SPENCER ST & CARLTON ST,41.626581,-83.577834,,,,,,0
2700,Spencer & Carlton SE,SPENCER ST & CARLTON ST,41.626497,-83.577756,,,,,,0
2701,Spencer & Ingomar NW,SPENCER ST & INGOMAR AVE,41.62805,-83.576017,,,,,,0
2702,Spencer & Ingomar SE,SPENCER ST & INGOMAR AVE,41.628054,-83.575766,,,,,,0
2703,Spencer & Lodge SE,SPENCER ST & LODGE AVE,41.624517,-83.580056,,,,,,0
2704,Spencer & Lodge SW,SPENCER ST & LODGE AVE,41.624581,-83.580141,,,,,,0
2705,Spencer & Nicholas NE,SPENCER ST & NELSON AVE,41.625982,-83.578343,,,,,,0
2706,Spencer & Nicholas NW,SPENCER ST & NELSON AVE,41.625756,-83.578764,,,,,,0
2707,Spencer & Prouty SW,SPENCER ST & PROUTY AVE,41.628788,-83.575008,,,,,,0
2708,Spencer & South SE,SPENCER ST & SOUTH AVE,41.630165,-83.574489,,,,,,0
2710,Starr & East Broadway NE,STARR AVE & E BROADWAY ST,41.643507,-83.515548,,,,,,0
2711,Starr & Howland NE,STARR AVE & HOWLAND AVE,41.643715,-83.504447,,,,,,0
2715,Starr & Plymouth NE,STARR AVE & PLYMOUTH ST,41.643599,-83.511954,,,,,,0
2717,Starr & Spring Grove NE,STARR AVE & SPRING GROVE AVE,41.643696,-83.507038,,,,,,0
2718,Starr & Spring Grove SW,STARR AVE & SPRING GROVE AVE,41.643565,-83.507711,,,,,,0
2719,Stickney & Ashwood SE,STICKNEY AVE & ASHWOOD AVE,41.675053,-83.526413,,,,,,0
2722,Starr & Willard NE,STARR AVE & WILLARD ST,41.643576,-83.513263,,,,,,0
2723,Stickney & Bronson SE,STICKNEY AVE & BRONSON AVE,41.677583,-83.526495,,,,,,0
2724,Stickney & Bronson SW,STICKNEY AVE & BRONSON AVE,41.677636,-83.526557,,,,,,0
2726,Stickney & Hudson NW,STICKNEY AVE & E HUDSON ST,41.684202,-83.526828,,,,,,0
2728,Stickney & Moore NW,STICKNEY AVE & MOORE ST,41.672203,-83.52639,,,,,,0
2729,Stickney & Noble SE,STICKNEY AVE & NOBLE ST,41.673518,-83.526331,,,,,,0
2730,Stickney & Paxton NW,STICKNEY AVE & PAXTON ST,41.675643,-83.52651,,,,,,0
2731,Stickney & Saint John SE,STICKNEY AVE & SAINT JOHN AVE,41.676487,-83.526444,,,,,,0
2732,Stickney & Yates SE,STICKNEY AVE & YATES ST,41.672192,-83.526294,,,,,,0
2733,Summit & 101st SE,N SUMMIT ST & 101ST ST,41.70335,-83.478622,,,,,,0
2734,Summit & 101st SW,N SUMMIT ST & 101ST ST,41.703681,-83.478764,,,,,,0
2735,Summit & 103rd SE,N SUMMIT ST & 103RD ST,41.705372,-83.478667,,,,,,0
2736,Summit & 105th SW,N SUMMIT ST & 105TH ST,41.706317,-83.478875,,,,,,0
2737,Summit & 107th SE,N SUMMIT ST & 107TH ST,41.707164,-83.478727,,,,,,0
2738,Summit & 109th NW,N SUMMIT ST & 109TH ST,41.709094,-83.478941,,,,,,0
2739,Summit & 109th SE,N SUMMIT ST & 109TH ST,41.708636,-83.478789,,,,,,0
2740,Summit & 116th NW,N SUMMIT ST & 116TH ST,41.71222,-83.47906,,,,,,0
2741,Summit & 116th SE,N SUMMIT ST & 116TH ST,41.711598,-83.478922,,,,,,0
2742,Summit & 118th NW,N SUMMIT ST & 118TH ST,41.714069,-83.47915,,,,,,0
2743,Summit & 119th SE,N SUMMIT ST & 119TH ST,41.713903,-83.478988,,,,,,0
2744,Summit & 123rd NW,N SUMMIT ST & 123RD ST,41.716005,-83.479218,,,,,,0
2745,Summit & 124th NW,N SUMMIT ST & 124TH ST,41.717415,-83.47927,,,,,,0
2746,Summit & 124th SE,N SUMMIT ST & 124TH ST,41.716303,-83.479117,,,,,,0
2747,Summit & 127th SE,N SUMMIT ST & 127TH ST,41.717799,-83.479222,,,,,,0
2748,Summit & 128 NW,N SUMMIT ST & 128TH ST,41.719074,-83.479334,,,,,,0
2749,Summit & 130th SE,N SUMMIT ST & 130TH ST,41.719306,-83.479215,,,,,,0
2750,Summit & Albany NE,N SUMMIT ST & ALBANY ST,41.678315,-83.497086,,,,,,0
2751,Summit & Albany SW,N SUMMIT ST & ALBANY ST,41.677879,-83.4974,,,,,,0
2752,Summit & Bassett NW,N SUMMIT ST & BASSETT ST,41.680571,-83.494357,,,,,,0
2753,Summit & Bassett SW,N SUMMIT ST & BASSETT ST,41.680376,-83.494372,,,,,,0
2754,Summit & Chicago NE,N SUMMIT ST & CHICAGO ST,41.671646,-83.505259,,,,,,0
2755,Summit & Chicago SW,N SUMMIT ST & CHICAGO ST,41.671357,-83.505378,,,,,,0
2756,Summit & Cincinnati NE,N SUMMIT ST & CINCINNATI ST,41.672612,-83.504101,,,,,,0
2757,Summit & Cincinnati SE,N SUMMIT ST & CINCINNATI ST,41.672485,-83.503991,,,,,,0
2758,Summit & Cleveland NE,N SUMMIT ST & CLEVELAND ST,41.676536,-83.499286,,,,,,0
2759,Summit & Cleveland SW,N SUMMIT ST & CLEVELAND ST,41.676227,-83.499401,,,,,,0
2760,Summit & Columbus NE,N SUMMIT ST & COLUMBUS ST,41.674655,-83.501578,,,,,,0
2761,Summit & Columbus SW,N SUMMIT ST & COLUMBUS ST,41.673946,-83.502248,,,,,,0
2762,Summit & Clayton NW,S SUMMIT ST & CLAYTON ST,41.643069,-83.540602,,,,,,0
2763,Summit & Clayton SE,S SUMMIT ST & CLAYTON ST,41.642119,-83.541135,,,,,,0
2764,Summit Detwiler,N SUMMIT ST & 101ST ST,41.698082,-83.479581,,,,,,0
2765,Summit Detwiler W,N SUMMIT ST & E MANHATTAN BLVD,41.692945,-83.482803,,,,,,0
2766,Summit & Jefferson NE,N SUMMIT ST & JEFFERSON AVE,41.650441,-83.534289,,,,,,0
2767,Summit & Lafayette NW,S SUMMIT ST & LAFAYETTE ST,41.645974,-83.538122,,,,,,0
2768,Summit & Lasalle NE,N SUMMIT ST & LASALLE ST,41.688046,-83.485541,,,,,,0
2769,Summit & Lasalle SW,N SUMMIT ST & LASALLE ST,41.687476,-83.485742,,,,,,0
2770,Summit & Manhattan NW,N SUMMIT ST & E MANHATTAN BLVD,41.690681,-83.484985,,,,,,0
2771,Summit & Manhattan SE,N SUMMIT ST & E MANHATTAN BLVD,41.689707,-83.485226,,,,,,0
2772,Summit & New York NE,N SUMMIT ST & NEW YORK AVE,41.679381,-83.495816,,,,,,0
2773,Summit & New York SE,N SUMMIT ST & NEW YORK AVE,41.679195,-83.495835,,,,,,0
2774,Summit & Ohio NE,N SUMMIT ST & OHIO ST,41.673619,-83.502824,,,,,,0
2775,Summit & Ohio SW,N SUMMIT ST & OHIO ST,41.67321,-83.503109,,,,,,0
2776,Summit & Oliver SE,S SUMMIT ST & OLIVER ST,41.643273,-83.540163,,,,,,0
2777,Summit & Pontiac NE,N SUMMIT ST & PONTIAC ST,41.682199,-83.492399,,,,,,0
2778,Summit & Pontiac SW,N SUMMIT ST & PONTIAC ST,41.681779,-83.492658,,,,,,0
2779,Summit & Riverside NE,N SUMMIT ST & RIVERSIDE CT,41.67061,-83.506389,,,,,,0
2780,Summit & Riverside SW,N SUMMIT ST & RIVERSIDE CT,41.670553,-83.506381,,,,,,0
2781,Summit & Suder NE,N SUMMIT ST & SUDER AVE,41.686359,-83.487345,,,,,,0
2782,Summit & Suder NW,N SUMMIT ST & SUDER AVE,41.684655,-83.489402,,,,,,0
2783,Summit & Suder SE,N SUMMIT ST & SUDER AVE,41.684984,-83.488715,,,,,,0
2784,Summit & Suder SEE,N SUMMIT ST & SUDER AVE,41.685874,-83.487615,,,,,,0
2785,Summit & Suder SW,N SUMMIT ST & SUDER AVE,41.683548,-83.49048,,,,,,0
2786,Summit & Sandusky NE,N SUMMIT ST & SANDUSKY ST,41.675725,-83.500262,,,,,,0
2787,Summit & Sandusky SW,N SUMMIT ST & SANDUSKY ST,41.675145,-83.50074,,,,,,0
2788,Summit & Sycamore NE,N SUMMIT ST & SYCAMORE ST,41.655952,-83.528322,,,,,,0
2789,Summit & Sycamore SE,N SUMMIT ST & SYCAMORE ST,41.655892,-83.528067,,,,,,0
2790,Summit & Troy NE,N SUMMIT ST & TROY ST,41.67729,-83.498343,,,,,,0
2791,Summit & Troy SW,N SUMMIT ST & TROY ST,41.677053,-83.498407,,,,,,0
2792,Summit & Washington NE,N SUMMIT ST & WASHINGTON ST,41.647244,-83.536606,,,,,,0
2793,Summit & Washington NW,N SUMMIT ST & WASHINGTON ST,41.64722,-83.537051,,,,,,0
2794,Summit & Washington SE,N SUMMIT ST & WASHINGTON ST,41.646097,-83.537723,,,,,,0
2795,Summit & Williams NW,S SUMMIT ST & WILLIAMS ST,41.642054,-83.541482,,,,,,0
2796,Summit Toledo Yacht Club E,N SUMMIT ST & E MANHATTAN BLVD,41.694515,-83.480728,,,,,,0
2797,Summit Toledo Yacht Club W,N SUMMIT ST & E MANHATTAN BLVD,41.694915,-83.480484,,,,,,0
2798,Sylvania & Brockton SW,W SYLVANIA AVE & BROCKTON DR,41.691068,-83.656478,,,,,,0
2799,Sylvania & Berkeley NE,W SYLVANIA AVE & BERKELEY DR,41.692717,-83.566265,,,,,,0
2800,Sylvania & Berwick NE,W SYLVANIA AVE & BERWICK AVE,41.692399,-83.582269,,,,,,0
2801,Sylvania & Bowen NE,W SYLVANIA AVE & BOWEN RD,41.692099,-83.610149,,,,,,0
2802,Sylvania & Buell SW,W SYLVANIA AVE & BUELL AVE,41.692077,-83.606384,,,,,,0
2803,Sylvania & Bellevue NE,W SYLVANIA AVE & BELLEVUE RD,41.692289,-83.594495,,,,,,0
2804,Sylvania & Bellevue SE,W SYLVANIA AVE & BELLEVUE RD,41.692166,-83.594488,,,,,,0
2805,Sylvania & Castener NE,W SYLVANIA AVE & CASTENER ST,41.693104,-83.550444,,,,,,0
2806,Sylvania & Clare Ridge SW,W SYLVANIA AVE & CLARERIDGE DR,41.691147,-83.651888,,,,,,0
2807,Sylvania & Concord NE,W SYLVANIA AVE & CONCORD ST,41.693165,-83.548786,,,,,,0
2808,Sylvania & Concord SW,W SYLVANIA AVE & CONCORD ST,41.693035,-83.549977,,,,,,0
2809,Sylvania & Canada Southern NE,W SYLVANIA AVE & CANADA SOUTHERN AVE,41.692993,-83.55284,,,,,,0
2810,Sylvania & Douglas NE,W SYLVANIA AVE & DOUGLAS RD,41.692234,-83.601361,,,,,,0
2811,Sylvania & Doty SW,W SYLVANIA AVE & DOTY DR,41.691889,-83.616191,,,,,,0
2812,Sylvania & Eaglehurst SW,SYLVANIA AVE & EAGLEHURST RD,41.690307,-83.697628,,,,,,0
2813,Sylvania & Elmhurst NE,W SYLVANIA AVE & ELMHURST RD,41.692044,-83.613967,,,,,,0
2814,Sylvania & Forestlawn SE,W SYLVANIA AVE & FORESTLAWN RD,41.691001,-83.660966,,,,,,0
2815,Sylvania & Franklin Park N,3000 W SYLVANIA AVE,41.691315,-83.639891,,,,,,0
2816,Sylvania & Funston NE,W SYLVANIA AVE & FUNSTON ST,41.693247,-83.54671,,,,,,0
2817,Sylvania & Funston SW,W SYLVANIA AVE & FUNSTON ST,41.693099,-83.548386,,,,,,0
2818,Sylvania & Garden Estates NE,W SYLVANIA AVE & GARDEN ESTATES DR,41.691431,-83.646163,,,,,,0
2819,Sylvania & Garrison NE,W SYLVANIA AVE & GARRISON RD,41.692069,-83.612587,,,,,,0
2820,Sylvania & Garrison SW,W SYLVANIA AVE & GARRISON RD,41.69196,-83.613091,,,,,,0
2821,Sylvania & Harvest NE,W SYLVANIA AVE & HARVEST LN,41.691535,-83.632348,,,,,,0
2822,Sylvania & Harvest SW,W SYLVANIA AVE & HARVEST LN,41.691314,-83.633532,,,,,,0
2823,Sylvania & North Haven SW,W SYLVANIA AVE & N HAVEN AVE,41.69249,-83.569162,,,,,,0
2824,Sylvania & Homewood NE,W SYLVANIA AVE & HOMEWOOD AVE,41.692519,-83.572073,,,,,,0
2825,Sylvania & Homewood SW,W SYLVANIA AVE & HOMEWOOD AVE,41.692345,-83.574008,,,,,,0
2826,Sylvania & Imperial NE,W SYLVANIA AVE & IMPERIAL BLVD,41.691147,-83.658294,,,,,,0
2827,Sylvania & Imperial SW,W SYLVANIA AVE & IMPERIAL BLVD,41.691024,-83.658874,,,,,,0
2828,Sylvania & Jackman NE,W SYLVANIA AVE & JACKMAN RD,41.692394,-83.583995,,,,,,0
2829,Sylvania & Jackman SW,W SYLVANIA AVE & JACKMAN RD,41.692259,-83.585328,,,,,,0
2830,Sylvania & Kelly NE,W SYLVANIA AVE & KELLEY AVE,41.692283,-83.591824,,,,,,0
2831,Sylvania & Kershaw NE,W SYLVANIA AVE & KERSHAW AVE,41.692223,-83.601306,,,,,,0
2832,Sylvania & Kingsbury NE,W SYLVANIA AVE & KINGSBURY AVE,41.692446,-83.578467,,,,,,0
2833,Sylvania & Lagrange SW,W SYLVANIA AVE & LAGRANGE ST,41.69316,-83.546712,,,,,,0
2834,Sylvania & Londonderry SW,W SYLVANIA AVE & LONDONDERRY LN,41.691339,-83.647019,,,,,,0
2835,Sylvania & Lockwood NE,W SYLVANIA AVE & LOCKWOOD AVE,41.692596,-83.569042,,,,,,0
2836,Sylvania & Lockwood SW,W SYLVANIA AVE & LOCKWOOD AVE,41.69242,-83.571418,,,,,,0
2837,Sylvania & McCord NE,SYLVANIA AVE & N MCCORD RD,41.690173,-83.703216,,,,,,0
2838,Sylvania & McCord SE,SYLVANIA AVE & N MCCORD RD,41.690093,-83.702593,,,,,,0
2839,Sylvania & Merriweather NE,W SYLVANIA AVE & MERRIWEATHER RD,41.691327,-83.65007,,,,,,0
2840,Sylvania & Mockingbird NE,W SYLVANIA AVE & MOCKINGBIRD LN,41.691235,-83.653188,,,,,,0
2841,Sylvania & Mockingbird SW,W SYLVANIA AVE & MOCKINGBIRD LN,41.691108,-83.654151,,,,,,0
2842,Sylvania & Matlack NE,W SYLVANIA AVE & MATLACK AVE,41.692386,-83.585576,,,,,,0
2843,Sylvania & Matlack SE,W SYLVANIA AVE & MATLACK AVE,41.692262,-83.586932,,,,,,0
2844,Sylvania & Monroe NE,W SYLVANIA AVE & MONROE ST,41.691809,-83.625415,,,,,,0
2845,Sylvania & Monroe NW,W SYLVANIA AVE & MONROE ST,41.691644,-83.629461,,,,,,0
2846,Sylvania & Monroe SW,W SYLVANIA AVE & MONROE ST,41.691482,-83.629875,,,,,,0
2847,Sylvania & Nantuckett NE,W SYLVANIA AVE & NANTUCKETT DR,41.691184,-83.655592,,,,,,0
2848,Sylvania & Overland NE,W SYLVANIA AVE & OVERLAND PKWY,41.692461,-83.57462,,,,,,0
2849,Sylvania & Phillips SW,W SYLVANIA AVE & PHILLIPS AVE,41.692554,-83.566609,,,,,,0
2850,Sylvania & Parrakeet SW,W SYLVANIA AVE & PARRAKEET AVE,41.692335,-83.578404,,,,,,0
2851,Sylvania & Robinhood NW,W SYLVANIA AVE & ROBINHOOD LN,41.690643,-83.692499,,,,,,0
2852,Sylvania & Robinhood SW,W SYLVANIA AVE & ROBINHOOD LN,41.690511,-83.692818,,,,,,0
2853,Sylvania & Rushland NE,W SYLVANIA AVE & RUSHLAND AVE,41.692154,-83.607206,,,,,,0
2854,Sylvania & Roanoke NW,W SYLVANIA AVE & ROANOKE RD,41.692236,-83.600016,,,,,,0
2855,Sylvania & Roanoke SW,W SYLVANIA AVE & ROANOKE RD,41.692162,-83.599818,,,,,,0
2856,Sylvania & Rohr NE,W SYLVANIA AVE & ROHR DR,41.691934,-83.619561,,,,,,0
2857,Sylvania & Royer NE,W SYLVANIA AVE & ROYER RD,41.691393,-83.636664,,,,,,0
2858,Sylvania & Royer NEE,W SYLVANIA AVE & ROYER RD,41.691466,-83.634311,,,,,,0
2859,Sylvania & Secor NE,W SYLVANIA AVE & SECOR RD,41.691893,-83.622751,,,,,,0
2860,Sylvania & Seiss SW,W SYLVANIA AVE & SEISS AVE,41.692797,-83.555841,,,,,,0
2861,Sylvania & Seckinger SW,W SYLVANIA AVE & SECKINGER DR,41.691871,-83.618844,,,,,,0
2862,Sylvania & Shadow Lake SE,W SYLVANIA AVE & SHADOW LAKE DR,41.690725,-83.688176,,,,,,0
2863,Sylvania & Stonehenge NE,SYLVANIA AVE & STONEHENGE DR,41.69034,-83.699033,,,,,,0
2864,Syvania & Stannard NE,W SYLVANIA AVE & STANNARD DR,41.69199,-83.616096,,,,,,0
2865,Sylvania & Sunforest SW,W SYLVANIA AVE & SUNFOREST CT,41.691372,-83.632185,,,,,,0
2866,Sylvania & Sylvanwood NW,SYLVANIA AVE & SYLVANWOOD DR,41.690233,-83.701679,,,,,,0
2867,Sylvania & Sylvanwood SW,SYLVANIA AVE & SYLVANWOOD DR,41.69014,-83.701642,,,,,,0
2868,Sylvania & Torrance SW,W SYLVANIA AVE & TORRANCE DR,41.692271,-83.582588,,,,,,0
2869,Sylvania & Upton NE,W SYLVANIA AVE & UPTON AVE,41.692357,-83.589006,,,,,,0
2870,Sylvania & Upton SW,W SYLVANIA AVE & UPTON AVE,41.692234,-83.590186,,,,,,0
2871,Sylvania & Vogel SW,W SYLVANIA AVE & VOGEL DR,41.69179,-83.621952,,,,,,0
2872,Sylvania & Woodmont NE,W SYLVANIA AVE & WOODMONT RD,41.692118,-83.608883,,,,,,0
2873,Sylvania & Woodmont SW,W SYLVANIA AVE & WOODMONT RD,41.692022,-83.610107,,,,,,0
2874,Sylvania & Woodley SE,W SYLVANIA AVE & WOODLEY RD,41.691225,-83.635824,,,,,,0
2875,Sylvania & Wetzler SW,W SYLVANIA AVE & WETZLER RD,41.692336,-83.576139,,,,,,0
2876,Sylvania & Whiteford NE,W SYLVANIA AVE & WHITEFORD RD,41.691055,-83.663848,,,,,,0
2877,Sylvania & Whiteford SW,W SYLVANIA AVE & WHITEFORD RD,41.690939,-83.665202,,,,,,0
2878,Talmadge & Airedale NE,TALMADGE RD & AIREDALE AVE,41.715265,-83.645381,,,,,,0
2879,Talmadge & Airedale SW,TALMADGE RD & AIREDALE AVE,41.71505,-83.645489,,,,,,0
2880,Talmadge & Alexis SW,TALMADGE RD & W ALEXIS RD,41.719753,-83.645679,,,,,,0
2881,Talmadge & Arnelle NW,TALMADGE RD & ARNELLE DR,41.687084,-83.644534,,,,,,0
2882,Talmadge & Arnelle SE,TALMADGE RD & ARNELLE DR,41.686679,-83.644307,,,,,,0
2883,Talmadge & Ariel NW,TALMADGE RD & ARIEL AVE,41.702632,-83.645166,,,,,,0
2885,Talmadge & Central NE,TALMADGE RD & W CENTRAL AVE,41.677774,-83.643993,,,,,,0
2886,Talmadge & Graceway SE,TALMADGE RD & GRACEWAY DR,41.689382,-83.644432,,,,,,0
2887,Talmadge & Homerdale NE,TALMADGE RD & HOMERDALE AVE,41.696112,-83.644755,,,,,,0
2888,Talmadge & Marlaine SE,TALMADGE RD & MARLAINE DR,41.684911,-83.644252,,,,,,0
2890,Talmadge & Oak Tree SE,TALMADGE RD & OAK TREE PL,41.710384,-83.645211,,,,,,0
2892,Talmadge & Regency Court NW,TALMADGE RD & REGENCY CT,41.704385,-83.645228,,,,,,0
2894,Talmadge & Torquay NW,TALMADGE RD & TORQUAY AVE,41.679774,-83.644241,,,,,,0
2895,Talmadge & Tiverton NW,TALMADGE RD & TIVERTON AVE,41.682272,-83.644317,,,,,,0
2896,Talmadge & Tiverton SE,TALMADGE RD & TIVERTON AVE,41.681776,-83.644147,,,,,,0
2897,Talmadge & Wenwood SE,TALMADGE RD & WENWOOD DR,41.692576,-83.644597,,,,,,0
2898,Tremainsville & Adelaide SW,TREMAINSVILLE RD & ADELAIDE DR,41.716248,-83.615852,,,,,,0
2899,Tremainsville & Amsden NW,TREMAINSVILLE RD & AMSDEN AVE,41.711441,-83.610188,,,,,,0
2900,Tremainsville & Amsden SW,TREMAINSVILLE RD & AMSDEN AVE,41.711804,-83.61076,,,,,,0
2901,Tremainsville & Coolidge SW,TREMAINSVILLE RD & COOLIDGE PKWY,41.698346,-83.594367,,,,,,0
2903,Tremainsville & Chippewa SE,TREMAINSVILLE RD & CHIPPEWA RD,41.719829,-83.619957,,,,,,0
2904,Tremainsville & Eastbrook SW,TREMAINSVILLE RD & EASTBROOK DR,41.69645,-83.591495,,,,,,0
2905,Tremainsville & Eldora SE,TREMAINSVILLE RD & ELDORA DR,41.712868,-83.611729,,,,,,0
2906,Tremainsville & Fern NE,TREMAINSVILLE RD & FERN DR,41.716521,-83.616008,,,,,,0
2907,Tremainsville & Harris NW,TREMAINSVILLE RD & HARRIS ST,41.693982,-83.587329,,,,,,0
2908,Tremainsville & Harris SW,TREMAINSVILLE RD & HARRIS ST,41.693834,-83.587223,,,,,,0
2909,Tremainsville & Laskey NE,TREMAINSVILLE RD & W LASKEY RD,41.705072,-83.602232,,,,,,0
2910,Tremainsville & Laskey NW,TREMAINSVILLE RD & W LASKEY RD,41.706979,-83.604429,,,,,,0
2911,Tremainsville & Laskey SE,TREMAINSVILLE RD & W LASKEY RD,41.705787,-83.603161,,,,,,0
2912,Tremainsville & Laskey SW,TREMAINSVILLE RD & W LASKEY RD,41.706744,-83.604397,,,,,,0
2913,Tremainsville & Mellwood Court NE,TREMAINSVILLE RD & MELLWOOD CT,41.700203,-83.596435,,,,,,0
2914,Tremainsville & Mellwood Court SW,TREMAINSVILLE RD & MELLWOOD CT,41.700455,-83.596855,,,,,,0
2915,Tremainsville & Mellwood,TREMAINSVILLE RD & MELLWOOD AVE,41.703111,-83.599857,,,,,,0
2916,Tremainsville & Mellwood SW,TREMAINSVILLE RD & MELLWOOD AVE,41.703344,-83.600279,,,,,,0
2917,Tremainsville & Oak Grove NW,TREMAINSVILLE RD & OAK GROVE PL,41.701797,-83.598316,,,,,,0
2918,Tremainsville & Oak Grove SW,TREMAINSVILLE RD & OAK GROVE PL,41.702156,-83.598862,,,,,,0
2919,Tremainsville & Pawnee NE,TREMAINSVILLE RD & PAWNEE RD,41.718178,-83.617997,,,,,,0
2920,Tremainsville & Springdale NE,TREMAINSVILLE RD & SPRINGDALE AVE,41.709722,-83.608206,,,,,,0
2921,Tremainsville & Springdale NEE,TREMAINSVILLE RD & SPRINGDALE AVE,41.708299,-83.606267,,,,,,0
2923,Tremainsville & Sylvania SW,TREMAINSVILLE RD & W SYLVANIA AVE,41.692597,-83.585286,,,,,,0
2924,Tremainsville & Upton NW,TREMAINSVILLE RD & UPTON AVE,41.695404,-83.589638,,,,,,0
2925,Tremainsville & Whitmer,TREMAINSVILLE RD & WHITMER DR,41.714622,-83.61373,,,,,,0
2926,Tremainsville & Whitmer SW,TREMAINSVILLE RD & WHITMER DR,41.71505,-83.614407,,,,,,0
2927,Tremainsville & Wichita SW,TREMAINSVILLE RD & WICHITA RD,41.718151,-83.618135,,,,,,0
2928,Tremainsville & Westbrook NE,TREMAINSVILLE RD & WESTBROOK DR,41.69816,-83.593984,,,,,,0
2929,Upton & Bancroft NW,UPTON AVE & W BANCROFT ST,41.66405,-83.588739,,,,,,0
2930,Upton & Dorr NW,UPTON AVE & DORR ST,41.653239,-83.588308,,,,,,0
2931,Upton & Fernwood NW,UPTON AVE & FERNWOOD AVE,41.654733,-83.588348,,,,,,0
2932,Upton & Fernwood SE,UPTON AVE & FERNWOOD AVE,41.654453,-83.588236,,,,,,0
2933,Upton & Foster SE,UPTON AVE & FOSTER AVE,41.657579,-83.588381,,,,,,0
2934,Upton & Foster SW,UPTON AVE & FOSTER AVE,41.657393,-83.588447,,,,,,0
2935,Upton & Grand NW,UPTON AVE & GRAND AVE,41.661861,-83.58862,,,,,,0
2936,Upton & Grand SE,UPTON AVE & GRAND AVE,41.66142,-83.58846,,,,,,0
2937,Upton & Milburn NW,UPTON AVE & MILBURN AVE,41.666652,-83.588764,,,,,,0
2938,Upton & Milburn SE,UPTON AVE & MILBURN AVE,41.666356,-83.588626,,,,,,0
2939,Upton & North Cove SE,UPTON AVE & N COVE BLVD,41.67179,-83.58881,,,,,,0
2940,Upton & Ottawa NW,UPTON AVE & OTTAWA DR,41.668759,-83.588854,,,,,,0
2941,Upton & Ottawa SE,UPTON AVE & OTTAWA DR,41.668355,-83.588696,,,,,,0
2942,Upton & Oakwood NW,UPTON AVE & OAKWOOD AVE,41.65655,-83.588406,,,,,,0
2943,Upton & Oakwood SE,UPTON AVE & OAKWOOD AVE,41.655682,-83.58828,,,,,,0
2944,Upton & Palmwood SE,UPTON AVE & PALMWOOD AVE,41.653665,-83.588221,,,,,,0
2945,Upton & Woodruff NW,UPTON AVE & W WOODRUFF AVE,41.65997,-83.588534,,,,,,0
2946,Upton & Woodruff SE,UPTON AVE & W WOODRUFF AVE,41.659572,-83.588458,,,,,,0
2947,UTMC Dana Cancer Center,HEALTH CENTER DR & E MEDICAL LOOP,41.615065,-83.617782,,,,,,0
2948,UTMC George Issac,HOSPITAL DR & ARLINGTON AVE,41.619884,-83.618438,,,,,,0
2949,Washington & 12th NE,WASHINGTON ST & 12TH ST,41.650771,-83.545061,,,,,,0
2950,Washington & 13th SW,WASHINGTON ST & 13TH ST,41.65129,-83.546574,,,,,,0
2951,Washington & 14thSW,WASHINGTON ST & 14TH ST,41.652126,-83.54815,,,,,,0
2952,Washington & 16th NE,WASHINGTON ST & 16TH ST,41.652257,-83.548164,,,,,,0
2953,Washington & Erie NE,WASHINGTON ST & N ERIE ST,41.648746,-83.540769,,,,,,0
2954,Washington & HuronNE,WASHINGTON ST & N HURON ST,41.64786,-83.538848,,,,,,0
2955,Washington & Huron SW,WASHINGTON ST & N HURON ST,41.64854,-83.540684,,,,,,0
2956,Washington & Michigan NE,WASHINGTON ST & N MICHIGAN ST,41.649693,-83.542773,,,,,,0
2957,Washington & Ontario SW,WASHINGTON ST & N ONTARIO ST,41.649601,-83.542861,,,,,,0
2958,Washington & St Clair NE,WASHINGTON ST & N ST CLAIR ST,41.64732,-83.537834,,,,,,0
2959,Western & Canal NE,WESTERN AVE & CANAL AVE,41.634537,-83.559959,,,,,,0
2960,Western & Chapin SW,WESTERN AVE & CHAPIN ST,41.634442,-83.559394,,,,,,0
2961,Western & Daniels SW,WESTERN AVE & DANIELS AVE,41.634711,-83.571506,,,,,,0
2962,Western & Eldred SW,WESTERN AVE & ELDRED AVE,41.634995,-83.581274,,,,,,0
2963,Western & Field NE,WESTERN AVE & FIELD AVE,41.634471,-83.553994,,,,,,0
2964,Western & Gibbons SW,WESTERN AVE & GIBBONS ST,41.63492,-83.578679,,,,,,0
2965,Western & Hawley NE,WESTERN AVE & S HAWLEY ST,41.634667,-83.566462,,,,,,0
2966,Western & Hawley SW,WESTERN AVE & S HAWLEY ST,41.634626,-83.56789,,,,,,0
2967,Western & Hiett NE,WESTERN AVE & HIETT AVE,41.634826,-83.571442,,,,,,0
2968,Western & Linden NE,WESTERN AVE & LINDEN PL,41.634509,-83.552939,,,,,,0
2969,Western & Linden SW,WESTERN AVE & LINDEN PL,41.634397,-83.553567,,,,,,0
2970,Western & Miller SW,WESTERN AVE & S MILLER ST,41.634573,-83.565322,,,,,,0
2971,Western & Mozart NE,WESTERN AVE & MOZART ST,41.634596,-83.562688,,,,,,0
2972,Western & Mozart SW,WESTERN AVE & MOZART ST,41.634506,-83.563393,,,,,,0
2974,Westwood & Dorr SE,N WESTWOOD AVE & DORR ST,41.652294,-83.607264,,,,,,0
2975,Westwood & Hartwell NE,N WESTWOOD AVE & HARTWELL AVE,41.643749,-83.606578,,,,,,0
2976,Westwood & Hartwell NW,N WESTWOOD AVE & HARTWELL AVE,41.644815,-83.606781,,,,,,0
2977,Westwood & Hawkins SE,N WESTWOOD AVE & HAWKINS AVE,41.639536,-83.606535,,,,,,0
2978,Westwood & Hawkins SW,N WESTWOOD AVE & HAWKINS AVE,41.63947,-83.606712,,,,,,0
2979,Western & Spencer SW,WESTERN AVE & SPENCER ST,41.634781,-83.574709,,,,,,0
2980,Westwood & Stockdale SE,N WESTWOOD AVE & STOCKDALE AVE,41.641639,-83.606565,,,,,,0
2981,Westwood & Stockdale SW,N WESTWOOD AVE & STOCKDALE AVE,41.641486,-83.606715,,,,,,0
2983,Westwood & Victory NW,N WESTWOOD AVE & VICTORY AVE,41.647444,-83.606737,,,,,,0
2984,Western & Wasaon NE,WESTERN AVE & WASAON ST,41.634487,-83.556468,,,,,,0
2985,Western & Wasaon SW,WESTERN AVE & WASAON ST,41.634384,-83.557193,,,,,,0
2986,Woodruff & 12th NE,E WOODRUFF AVE & N 12TH ST,41.660714,-83.53924,,,,,,0
2987,Woodruff & 12th SW,E WOODRUFF AVE & N 12TH ST,41.660576,-83.540327,,,,,,0
2988,Woodruff & 14th NE,E WOODRUFF AVE & N 14TH ST,41.660618,-83.54174,,,,,,0
2989,Woodruff & 14th SW,E WOODRUFF AVE & N 14TH ST,41.660526,-83.542396,,,,,,0
2990,Woodruff & Canton SW,E WOODRUFF AVE & CANTON AVE,41.660623,-83.538082,,,,,,0
2991,Woodruff & Franklin NE,E WOODRUFF AVE & FRANKLIN AVE,41.660593,-83.543894,,,,,,0
2992,Woodruff & Franklin SE,E WOODRUFF AVE & FRANKLIN AVE,41.660452,-83.545068,,,,,,0
2994,Wheeling & Consaul NW,N WHEELING ST & CONSAUL ST,41.65893,-83.487421,,,,,,0
2995,Wheeling & Consaul SW,N WHEELING ST & CONSAUL ST,41.657397,-83.487363,,,,,,0
2996,Wheeling & Quincy NW,N WHEELING ST & QUINCY ST,41.653731,-83.487259,,,,,,0
2997,Wheeling & Quincy SE,N WHEELING ST & QUINCY ST,41.653699,-83.487158,,,,,,0
2998,Wheeling & Seaman NW,N WHEELING ST & SEAMAN RD,41.651959,-83.487196,,,,,,0
3000,Wheeling & Stitt SW,N WHEELING ST & STITT ST,41.662834,-83.48757,,,,,,0
3001,Wheeling & York SE,N WHEELING ST & YORK ST,41.665714,-83.487537,,,,,,0
3002,West Lake & Delaware NW,WESTLAKE ST & W DELAWARE AVE,41.670919,-83.568769,,,,,,0
3006,Wayne & Allen NW,W WAYNE ST & ALLEN ST,41.561386,-83.655506,,,,,,0
3007,Wayne & Allen SW,W WAYNE ST & ALLEN ST,41.561309,-83.655537,,,,,,0
3008,Wayne & Cass NE,W WAYNE ST & CASS ST,41.56094,-83.65687,,,,,,0
3009,Wayne & Cass SW,W WAYNE ST & CASS ST,41.560714,-83.657434,,,,,,0
3010,Wayne & Duane SW,W WAYNE ST & DUANE ST,41.559182,-83.662419,,,,,,0
3011,Wayne & Elizabeth NE,E WAYNE ST & ELIZABETH ST,41.56315,-83.649646,,,,,,0
3012,Wayne & Elizabeth SW,E WAYNE ST & ELIZABETH ST,41.562941,-83.650143,,,,,,0
3014,Wayne & Ford SW,W WAYNE ST & FORD ST,41.558652,-83.664195,,,,,,0
3015,Wayne & Gibbs NW,E WAYNE ST & GIBBS ST,41.562467,-83.651895,,,,,,0
3016,Wayne & Gibbs SW,E WAYNE ST & GIBBS ST,41.562371,-83.651991,,,,,,0
3017,Wayne & Jackson SW,E WAYNE ST & JACKSON ST,41.564063,-83.64645,,,,,,0
3018,Wayne & Kingsbury NW,W WAYNE ST & KINGSBURY ST,41.560311,-83.658975,,,,,,0
3019,Wayne & Kingsbury SW,W WAYNE ST & KINGSBURY ST,41.560086,-83.659525,,,,,,0
3020,Wayne & Lacombe SE,W WAYNE ST & LACOMBE DR,41.558518,-83.666008,,,,,,0
3021,Wayne & Roseamond NE,W WAYNE ST & ROSAMOND ST,41.559959,-83.660067,,,,,,0
3022,Wayne & White NE,E WAYNE ST & WHITE ST,41.563692,-83.647809,,,,,,0
3023,Wayne & White SW,E WAYNE ST & WHITE ST,41.563443,-83.648316,,,,,,0
3025,Wenz & Hill SW,WENZ RD & HILL AVE,41.637721,-83.645478,,,,,,0
3027,Wenz & Parkcliff NW,WENZ RD & PARKCLIFF LN,41.621126,-83.644626,,,,,,0
3028,Wenz & South NW,WENZ RD & SOUTH AVE,41.634603,-83.645401,,,,,,0
3030,York & Bakewell SW,YORK ST & BAKEWELL ST,41.665676,-83.492971,,,,,,0
3033,York & Valentine SW,YORK ST & VALENTINE ST,41.665698,-83.491272,,,,,,0
3036,York & Woodford SW,YORK ST & WOODFORD ST,41.665766,-83.48902,,,,,,0
3037,131st & 308th NE,131ST ST & 308TH ST,41.720211,-83.472354,,,,,,0
3038,Collingwood & Belmont SE,COLLINGWOOD BLVD & BELMONT AVE,41.647554,-83.554703,,,,,,0
3039,Collingwood & Dorr SE,COLLINGWOOD BLVD & DORR ST,41.652818,-83.554778,,,,,,0
3040,Collingwood & Jefferson NW,COLLINGWOOD BLVD & JEFFERSON AVE,41.659589,-83.555035,,,,,,0
3041,Collingwood & Monroe NW,COLLINGWOOD BLVD & MONROE ST,41.657707,-83.555039,,,,,,0
3042,Collingwood & Nebraska NW,COLLINGWOOD BLVD & NEBRASKA AVE,41.645548,-83.554792,,,,,,0
3043,Dorr & St Andrews SW,DORR ST & ST ANDREWS RD,41.652738,-83.644737,,,,,,0
3044,Dixie Hwy & Hollywood SE,MIAMI ST & HOLLYWOOD BLVD,41.617293,-83.549231,,,,,,0
3046,Nebraska & Woodstock NE,NEBRASKA AVE & WOODSTOCK AVE,41.645574,-83.592154,,,,,,0
3047,Oak & Navarre SE,OAK ST & NAVARRE AVE,41.634086,-83.52517,,,,,,0
3048,Starlite Plaza,MONROE ST & COREY RD,41.711067,-83.676834,,,,,,0
3049,Hill & Arco NE,HILL AVE & ARCO DR,41.638201,-83.621553,,,,,,0
3050,Alexis & Davida SW,W ALEXIS RD & DAVIDA DR,41.721566,-83.560199,,,,,,0
3051,Alexis & Benalex SW,W ALEXIS RD & BENALEX DR,41.721595,-83.557934,,,,,,0
3052,Airport & Detroit NE,AIRPORT HWY & S DETROIT AVE,41.633752,-83.589721,,,,,,0
3053,Airport & Emery NE,AIRPORT HWY & EMERY ST,41.635673,-83.585014,,,,,,0
3054,Airport & Shasta NE,AIRPORT HWY & SHASTA DR,41.634653,-83.587495,,,,,,0
3055,Dorr & Harrow SW,DORR ST & HARROW RD,41.65351,-83.675307,,,,,,0
3056,Western & Champion NE,WESTERN AVE & CHAMPION ST,41.635079,-83.581769,,,,,,0
3057,Western & Dale NE,WESTERN AVE & DALE ST,41.63501,-83.579354,,,,,,0
3058,Western & Gibbons NE,WESTERN AVE & GIBBONS ST,41.634988,-83.578111,,,,,,0
3059,Western & Hillside NE,WESTERN AVE & HILLSIDE DR,41.634928,-83.575886,,,,,,0
3063,Oakdale & Miami NE,OAKDALE AVE & MIAMI ST,41.623122,-83.530721,,,,,,0
3064,Oakdale & Miami SE,OAKDALE AVE & MIAMI ST,41.62291,-83.530739,,,,,,0
3065,Dixie Hwy & Walnut NW,DIXIE HWY & WALNUT ST,41.611199,-83.557428,,,,,,0
3066,Monroe & Bryn Mawr NW,MONROE ST & BRYN MAWR DR,41.674235,-83.590362,,,,,,0
3073,Wade & Knapp NW,WADE ST & KNAPP ST,41.64015,-83.541207,,,,,,0
3077,Central & Holland-Sylvania SE,W CENTRAL AVE & N HOLLAND SYLVANIA RD,41.676191,-83.681415,,,,,,0
3082,Miami & Botkins NE,MIAMI ST & BOTKINS DR,41.621564,-83.536186,,,,,,0
3083,Acres & Cadet (Flag Down),ACRES RD & CADET RD,41.716525,-83.684664,,,,,,0
3084,Acres & Marshall (Flag Down),ACRES RD & MARSHALL RD,41.719811,-83.684888,,,,,,0
3085,Marshall & Dornell (Flag Down),MARSHALL RD & DORNELL DR,41.719849,-83.682845,,,,,,0
3086,Marshall & Roan (Flag Down),MARSHALL RD & ROAN RD,41.719892,-83.677906,,,,,,0
3087,Marshall & Roberts (Flag Down),MARSHALL RD & ROBERTS RD,41.719897,-83.674036,,,,,,0
3088,Roberts & Alexis (Flag Down),ROBERTS RD & W ALEXIS RD,41.716953,-83.673681,,,,,,0
3089,Alexis & Roan (Flag Down),W ALEXIS RD & ROAN RD,41.716453,-83.67755,,,,,,0
3090,Alexis & Elliot (Flag Down),W ALEXIS RD & ELLIOTT RD,41.716125,-83.680622,,,,,,0
3091,Alexis & Acres (Flag Down),W ALEXIS RD & ACRES RD,41.715579,-83.684589,,,,,,0
3092,Brint & Brinthaven NE (Flag Down),BRINT RD & BRINTHAVEN RD,41.704633,-83.708171,,,,,,0
3093,Brint & Brinthaven SW (Flag Down),BRINT RD & NEW ENGLAND LN,41.704434,-83.708639,,,,,,0
3094,Brint & Silica (Flag Down),BRINT RD & SILICA DR,41.704182,-83.713937,,,,,,0
3095,Brint & Woodland (Flag Down),BRINT RD & WOODLAND LN,41.703929,-83.714705,,,,,,0
3096,Brint & Inland NE (Flag Down),BRINT RD & INLAND DR,41.703261,-83.721227,,,,,,0
3097,Brint & Inland SW (Flag Down),BRINT RD & INLAND DR,41.703072,-83.721431,,,,,,0
3098,King & Sylvania NW (Kingston),KING RD & SYLVANIA AVE,41.691276,-83.723613,,,,,,0
3099,King & Sylvania SW (Kroger),KING RD & SYLVANIA AVE,41.686779,-83.723426,,,,,,0
3100,King & Sylvania SE (Library),KING RD & SYLVANIA AVE,41.687182,-83.722259,,,,,,0
3101,Holland-Sylvania & Goodhue SE (Flag Down),N HOLLAND SYLVANIA RD & GOODHUE RD,41.679028,-83.682843,,,,,,0
3102,Holland-Sylvania & Goodhue NW (Flag Down),N HOLLAND SYLVANIA RD & GOODHUE RD,41.67928,-83.683072,,,,,,0
3103,Holland-Sylvania & Blossman SE (Flag Down),N HOLLAND SYLVANIA RD & PARK CENTER CT,41.682737,-83.683116,,,,,,0
3104,Holland-Sylvania & Blossman NW (Flag Down),N HOLLAND SYLVANIA RD & BLOSSMAN RD,41.683034,-83.683357,,,,,,0
3105,Dussel & Ford (Flag Down),W DUSSEL DR & FORD ST,41.58028,-83.6807,,,,,,0
3106,Dussel & Arrowhead (Flag Down),W DUSSEL DR & ARROWHEAD RD,41.58094,-83.685666,,,,,,0
3107,Arrowhead & Indian Wood (Flag Down),ARROWHEAD RD & INDIAN WOOD CIR,41.583398,-83.685456,,,,,,0
3108,Indian Wood & Ford (Flag Down),INDIAN WOOD CIR & FORD ST,41.583224,-83.681414,,,,,,0
3109,Holland & Tomahawk SE (Flag Down),HOLLAND RD & TOMAHAWK DR,41.586556,-83.673627,,,,,,0
3110,Holland & Tomahawk NW (Flag Down),HOLLAND RD & TOMAHAWK DR,41.586664,-83.673459,,,,,,0
3111,Holland & Hickory Pointe SE (Flag Down),HOLLAND RD & HICKORY POINTE RD,41.589702,-83.677772,,,,,,0
3112,Holland & Hickory Pointe NW (Flag Down),HOLLAND RD & HICKORY POINTE RD,41.589694,-83.677424,,,,,,0
3113,Hickory Pointe & Indian Wood NE (Flag Down),HICKORY POINTE RD & INDIAN WOOD CIR,41.588447,-83.680515,,,,,,0
3114,Indian Wood & Woodlands N (Flag Down),INDIAN WOOD CIR & WOODLANDS DR,41.589531,-83.68468,,,,,,0
3115,Indian Wood & Timber Line (Flag Down),INDIAN WOOD CIR & TIMBER LINE RD,41.589069,-83.686729,,,,,,0
3116,Indian Woods & Woodlands S (Flag Down),INDIAN WOOD CIR & WOODLANDS DR,41.585646,-83.687404,,,,,,0
3117,Indian Wood & Arrowhead (Flag Down),INDIAN WOOD CIR & ARROWHEAD RD,41.583434,-83.685648,,,,,,0
3118,Indian Wood & Tomahawk SW (Flag Down),INDIAN WOOD CIR & TOMAHAWK DR,41.58447,-83.678251,,,,,,0
3119,Tomahawk & Holland (Flag Down),TOMAHAWK DR & INDIAN WOOD CIR,41.586349,-83.673926,,,,,,0
3120,South & Pleasant (Flag Down),SOUTH AVE & PLEASANT PL,41.630718,-83.553838,,,,,,0
3121,South & Maumee (Flag Down),SOUTH AVE & MAUMEE AVE,41.63071,-83.550346,,,,,,0
3122,South & Banks (Flag Down),SOUTH AVE & BANKS ST,41.630702,-83.546302,,,,,,0
3123,South & Walbridge (Flag Down),SUMNER ST & WALBRIDGE AVE,41.632278,-83.544346,,,,,,0
3124,Sumner & Western (Flag Down),SUMNER ST & WESTERN AVE,41.634321,-83.544359,,,,,,0
3125,Sumner & Jervis (Flag Down),SUMNER ST & JERVIS ST,41.635807,-83.544371,,,,,,0
3126,Segur & Boody (Flag Down),SEGUR AVE & BOODY ST,41.636716,-83.546004,,,,,,0
3127,Segur & Broadway (Flag Down),SEGUR AVE & BROADWAY ST,41.63668,-83.548032,,,,,,0
3128,Nevada & Willard SW (Flag Down),NEVADA ST & WILLARD ST,41.639841,-83.51349,,,,,,0
3129,Nevada & White SW (Flag Down),NEVADA ST & WHITE ST,41.639877,-83.511101,,,,,,0
3130,Raymer & Idaho NW (Flag Down),RAYMER BLVD & IDAHO ST,41.638238,-83.509721,,,,,,0
3131,Navarre & Spring Grove (Flag Down),NAVARRE AVE & SPRING GROVE AVE,41.636383,-83.507297,,,,,,0
3132,Navarre & Thurston (Flag Down),NAVARRE AVE & THURSTON ST,41.636436,-83.502665,,,,,,0
3133,Dover Place & Idaho (Flag Down),DOVER PL & PRICE ST,41.6382,-83.499135,,,,,,0
3134,Dover Place & Nevada (Flag Down),DOVER PL & HURD ST,41.639992,-83.499195,,,,,,0
3135,Dover Place & Dearborn NE (Flag Down),DOVER PL & DEARBORN AVE,41.64236,-83.49929,,,,,,0
3137,Raymer & Idaho SE (Flag Down),RAYMER BLVD & IDAHO ST,41.638121,-83.509565,,,,,,0
3155,Sylvania & Burnham (Flag Down),W SYLVANIA AVE & BURNHAM AVE,41.69285,-83.558909,,,,,,0
3156,Sylvania & Walker (Flag Down),W SYLVANIA AVE & WALKER AVE,41.692777,-83.563149,,,,,,0
3157,Upton & Brussels NW (Flag Down),UPTON AVE & BRUSSELS ST,41.690893,-83.589563,,,,,,0
3158,Upton & Berdan NW (Flag Down),UPTON AVE & BERDAN AVE,41.688732,-83.589513,,,,,,0
3159,Upton & Fairfax NW (Flag Down),UPTON AVE & FAIRFAX RD,41.683996,-83.589376,,,,,,0
3160,Upton & Wellesley (Flag Down),UPTON AVE & WELLESLEY DR,41.676109,-83.589164,,,,,,0
3161,Upton & Monroe (Flag Down),UPTON AVE & CHRISTIE ST,41.673507,-83.589054,,,,,,0
3162,Bancroft & Horton (Flag Down),W BANCROFT ST & HORTON ST,41.663878,-83.552747,,,,,,0
3163,Bancroft & Putnam (Flag Down),W BANCROFT ST & PUTNAM ST,41.66396,-83.548569,,,,,,0
3164,Bancroft & Franklin (Flag Down),W BANCROFT ST & FRANKLIN AVE,41.664024,-83.545603,,,,,,0
3165,Bancroft & 14th (Flag Down),E BANCROFT ST & N 14TH ST,41.664096,-83.542265,,,,,,0
3166,Cheltenham & Pelham SE (Flag Down),CHELTENHAM RD & PELHAM RD,41.666695,-83.611945,,,,,,0
3167,Cheltenham & Darlington SE (Flag Down),CHELTENHAM RD & PELHAM RD,41.668703,-83.61202,,,,,,0
3168,Powhattan & Christie SE (Flag Down),POWHATTAN PKWY & KENWOOD BLVD,41.672825,-83.601446,,,,,,0
3169,Powhattan & Hughes SE (Flag Down),POWHATTAN PKWY & HUGHES DR,41.675192,-83.601521,,,,,,0
3170,Powhattan & Christie NW (Flag Down),POWHATTAN PKWY & CHRISTIE ST,41.673005,-83.601674,,,,,,0
3171,Powhattan & Hughes NW (Flag Down),POWHATTAN PKWY & HUGHES DR,41.675372,-83.601749,,,,,,0
3172,Upton & Mansfield (Flag Down),UPTON AVE & MANSFIELD RD,41.68532,-83.589197,,,,,,0
3173,Upton & Berdan SE (Flag Down),UPTON AVE & BERDAN AVE,41.688552,-83.589284,,,,,,0
3174,Upton & Brussels SE (Flag Down),UPTON AVE & BRUSSELS ST,41.690713,-83.589334,,,,,,0
3175,Upton & Fairfax SE (Flag Down),UPTON AVE & FAIRFAX RD,41.683816,-83.589148,,,,,,0
3176,Cheltenham & Darlington NW (Flag Down),CHELTENHAM RD & DARLINGTON RD,41.668883,-83.612248,,,,,,0
3177,Cheltenham & Pelham NW (Flag Down),CHELTENHAM RD & PELHAM RD,41.666875,-83.612174,,,,,,0
3178,Elmhurst & Elsie (Flag Down),ELMHURST RD & ELSIE AVE,41.701193,-83.616207,,,,,,0
3179,Elsie & Garrison (Flag Down),ELSIE AVE & GARRISON RD,41.701438,-83.613228,,,,,,0
3180,Elsie & Bowen (Flag Down),ELSIE AVE & BOWEN RD,41.701638,-83.610862,,,,,,0
3181,Elsie & Bales (Flag Down),ELSIE AVE & BALES RD,41.701506,-83.606489,,,,,,0
3182,Middlesex & Brantford SE (Flag Down),MIDDLESEX DR & BRANTFORD RD,41.664574,-83.618186,,,,,,0
3183,Middlesex & Brantford NW (Flag Down),MIDDLESEX DR & BRANTFORD RD,41.664754,-83.618415,,,,,,0
3184,Middlesex & Pelham SE (Flag Down),MIDDLESEX DR & PELHAM RD,41.666582,-83.618237,,,,,,0
3185,Middlesex & Pelham NW (Flag Down),MIDDLESEX DR & PELHAM RD,41.666762,-83.618466,,,,,,0
3186,Middlesex & Darlington SE (Flag Down),MIDDLESEX DR & DARLINGTON RD,41.668626,-83.618288,,,,,,0
3187,Middlesex & Darlington NW (Flag Down),MIDDLESEX DR & DARLINGTON RD,41.668806,-83.618516,,,,,,0
3188,Darlington & Densmore NE (Flag Down),DARLINGTON RD & DENSMORE DR,41.668723,-83.620942,,,,,,0
3189,Darlington & Densmore SW (Flag Down),DARLINGTON RD & DENSMORE DR,41.668534,-83.621146,,,,,,0
3190,Grantwood & Bales (Flag Down),GRANTWOOD DR & BALES RD,41.696752,-83.606519,,,,,,0
3191,Grantwood & Bowen (Flag Down),GRANTWOOD DR & BOWEN RD,41.696696,-83.610507,,,,,,0
3192,Grantwood & Garrison (Flag Down),GRANTWOOD DR & GARRISON RD,41.69664,-83.612861,,,,,,0
3194,Airport & Decatur SW (Flag Down),AIRPORT HWY & DECATUR ST,41.631845,-83.594018,,,,,,0
3195,Airport & Decatur NE (Flag Down),AIRPORT HWY & DECATUR ST,41.632035,-83.594006,,,,,,0
3196,Spencer & Walbridge NW (Flag Down),SPENCER ST & WALBRIDGE AVE,41.632836,-83.574553,,,,,,0
3197,Specer & Walbridge SE (Flag Down),SPENCER ST & WALBRIDGE AVE,41.632656,-83.574349,,,,,,0
3198,Swan Creek & Plum Leaf (Flag Down),SWAN CREEK DR & PLUM LEAF LN,41.601555,-83.674585,,,,,,0
3199,Plum Leaf & Knightsbridge (Flag Down),PLUM LEAF LN & KNIGHTSBRIDGE DR,41.597467,-83.674623,,,,,,0
3200,Richards & EmmaJean SE (Flag Down),RICHARDS RD & ESTATEWAY RD,41.658873,-83.641038,,,,,,0
3201,Bancroft & Grecourt (Flag Down),W BANCROFT ST & GRECOURT DR,41.662236,-83.661575,,,,,,0
3202,Cass & Laurentide (Flag Down),CASS RD & LAURENTIDE LN,41.597464,-83.654952,,,,,,0
3203,Cass & Ryan (Flag Down),CASS RD & RYAN RD,41.601596,-83.654912,,,,,,0
3204,Cherrylawn & Oak Forest (Flag Down),CHERRYLAWN DR & DRIFTWOOD RD,41.609349,-83.636608,,,,,,0
3205,Cherrylawn & Shadylawn (Flag Down),CHERRYLAWN DR & SHADYLAWN DR,41.606389,-83.63412,,,,,,0
3206,Cherrylawn & Rose Arbor (Flag Down),CHERRYLAWN DR & ROSE ARBOR DR,41.605492,-83.63052,,,,,,0
3207,Cherrylawn & Heatherlawn (Flag Down),CHERRYLAWN DR & HEATHERLAWN DR,41.602343,-83.627935,,,,,,0
3208,Copland & Beverly SW (Flag Down),COPLAND BLVD & BEVERLY DR,41.593607,-83.608216,,,,,,0
3209,Copland & Beverly NE (Flag Down),COPLAND BLVD & BEECHWAY BLVD,41.593689,-83.608012,,,,,,0
3210,Angola & Wenz (Flag Down),ANGOLA RD & WENZ RD,41.623638,-83.645692,,,,,,0
3211,Angola & Country Creek (Flag Down),ANGOLA RD & WENZ RD,41.623725,-83.648128,,,,,,0
3212,Angola & Emeral Run (Flag Down),ANGOLA RD & UNNAMED ST,41.62395,-83.656948,,,,,,0
3213,Angola & Reynolds (Flag Down),ANGOLA RD & S REYNOLDS RD,41.622789,-83.664469,,,,,,0
3214,Holland-Sylvania & Steeplechase (Flag Down),N HOLLAND SYLVANIA RD & STEEPLE CHASE CIR,41.650793,-83.682715,,,,,,0
3215,Holland-Sylvania & Nebraska (Flag Down),N HOLLAND SYLVANIA RD & NEBRASKA AVE,41.646309,-83.682933,,,,,,0
3216,Holland-Sylvania & Hill (Flag Down),N HOLLAND SYLVANIA RD & HILL AVE,41.638654,-83.684379,,,,,,0
3217,Holland-Sylvania & Reo (Flag Down),S HOLLAND SYLVANIA RD & REO ST,41.633991,-83.684355,,,,,,0
3218,Holland-Sylvania & Angola (Flag Down),S HOLLAND SYLVANIA RD & ANGOLA RD,41.62388,-83.684259,,,,,,0
3219,Holland-Sylvania & Chanticleer (Flag Down),S HOLLAND SYLVANIA RD & S CHANTICLEER DR,41.600923,-83.689109,,,,,,0
3220,Hawley & Whittier SE (Flag Down),S HAWLEY ST & WHITTIER ST,41.637584,-83.5672,,,,,,0
3221,Hawley & Whittier NW (Flag Down),S HAWLEY ST & WHITTIER ST,41.637764,-83.567416,,,,,,0
3222,Hawley & Buckingham SE (Flag Down),N HAWLEY ST & CAMPBELL ST,41.642833,-83.567227,,,,,,0
3223,Hawley & Buckingham NW (Flag Down),N HAWLEY ST & BUCKINGHAM ST,41.643085,-83.567443,,,,,,0
3224,Hawley & Tecumseh SE (Flag Down),N HAWLEY ST & TECUMSEH ST,41.644508,-83.567228,,,,,,0
3225,Hawley & Tecumseh NW (Flag Down),N HAWLEY ST & TECUMSEH ST,41.644688,-83.567444,,,,,,0
3226,Parkside & Allenby (Flag Down),PARKSIDE BLVD & ALLENBY RD,41.655641,-83.594295,,,,,,0
3227,Parkside & Woodruff SE (Flag Down),PARKSIDE BLVD & W WOODRUFF AVE,41.660044,-83.594456,,,,,,0
3228,Auburn & Cone NW (Flag Down),AUBURN AVE & CONE ST,41.667714,-83.579226,,,,,,0
3229,Auburn & Cone SE (Flag Down),AUBURN AVE & CONE ST,41.667534,-83.578997,,,,,,0
3230,Auburn & Freeman NW (Flag Down),AUBURN AVE & FREEMAN ST,41.664725,-83.579139,,,,,,0
3231,Auburn & Freeman SE (Flag Down),AUBURN AVE & FREEMAN ST,41.664392,-83.578911,,,,,,0
3232,Auburn & Macomber SE (Flag Down),AUBURN AVE & MACOMBER ST,41.665445,-83.578948,,,,,,0
3233,Parkside & Mt. Vernon (Flag Down),PARKSIDE BLVD & UNNAMED ST,41.656433,-83.595004,,,,,,0
3234,Parkside & Midway Plaisance (Flag Down),PARKSIDE BLVD & MIDWAY PLAISANCE ST,41.651031,-83.595467,,,,,,0
3235,Manhattan & Elm NE (Flag Down),E MANHATTAN BLVD & ELM ST,41.68629,-83.536385,,,,,,0
3236,Manhattan & Elm SW (Flag Down),E MANHATTAN BLVD & ELM ST,41.68611,-83.536637,,,,,,0
3237,Manhattan & Lagrange NE (Flag Down),E MANHATTAN BLVD & LAGRANGE ST,41.68583,-83.543399,,,,,,0
3238,Manhattan & Phillips (Flag Down),W MANHATTAN BLVD & PHILLIPS AVE,41.685037,-83.550293,,,,,,0
3239,Manhattan & Gladstone (Flag Down),W MANHATTAN BLVD & GLADSTONE AVE,41.685027,-83.554425,,,,,,0
3240,Manhattan & Richardson (Flag Down),W MANHATTAN BLVD & N RICHARDSON DR,41.684649,-83.552515,,,,,,0
3241,Manhattan & Blanchard (Flag Down),W MANHATTAN BLVD & BLANCHARD ST,41.684659,-83.550449,,,,,,0
3242,Manhattan & Lagrange SW (Flag Down),E MANHATTAN BLVD & LAGRANGE ST,41.685659,-83.54364,,,,,,0
3243,Manhattan & Maple SW (Flag Down),E MANHATTAN BLVD & MAPLE ST,41.685921,-83.539496,,,,,,0
3244,Manhattan & Maple NE (Flag Down),E MANHATTAN BLVD & MAPLE ST,41.686092,-83.539256,,,,,,0
3245,Swan Creek & White Chapel (Flag Down),SWAN CREEK DR & WHITECHAPEL DR,41.601449,-83.67943,,,,,,0
3246,Whitechapel & Larkhall (Flag Down),WHITECHAPEL DR & LARKHALL DR,41.598946,-83.679521,,,,,,0
3247,Whitechapel & Brookcliffe NW (Flag Down),WHITECHAPEL DR & BROOKCLIFFE RD,41.595724,-83.678985,,,,,,0
3248,Copland & Orono SW (Flag Down),COPLAND BLVD & ORONO DR,41.593565,-83.616396,,,,,,0
3249,Cheltenham & Brantford (Flag Down),CHELTENHAM RD & BRANTFORD RD,41.66484,-83.612123,,,,,,0
3250,Indian & Orchard NE (Flag Down),INDIAN RD & ORCHARD RD,41.664218,-83.624838,,,,,,0
3251,Indian & Orchard SW (Flag Down),INDIAN RD & ORCHARD RD,41.664173,-83.625162,,,,,,0
3252,Indian & Hempstead NE (Flag Down),INDIAN RD & HEMPSTEAD RD,41.665171,-83.626784,,,,,,0
3253,Indian & Hempstead SW (Flag Down),INDIAN RD & HEMPSTEAD RD,41.665125,-83.627108,,,,,,0
3254,Indian & Pembroke NE (Flag Down),INDIAN RD & PEMBROKE RD,41.67174,-83.640376,,,,,,0
3255,Indian & Pembroke SW (Flag Down),INDIAN RD & PEMBROKE RD,41.671694,-83.6407,,,,,,0
3256,Jackman & Irma SE (Flag Down),JACKMAN RD & IRMA PL,41.69636,-83.584895,,,,,,0
3257,Jackman & Irma NW (Flag Down),JACKMAN RD & IRMA PL,41.69654,-83.585123,,,,,,0
3258,Sherbrooke & Christie SE (Flag Down),SHERBROOKE RD & KENWOOD BLVD,41.672806,-83.602635,,,,,,0
3259,Sherbrooke & Christie NW (Flag Down),SHERBROOKE RD & CHRISTIE ST,41.672986,-83.602863,,,,,,0
3260,Sherbrooke & Hughes SE (Flag Down),SHERBROOKE RD & HUGHES DR,41.675183,-83.602709,,,,,,0
3261,Sherbrooke & Hughes NW (Flag Down),SHERBROOKE RD & HUGHES DR,41.675363,-83.602938,,,,,,0
3262,Meadowwood & Darlington NW (Flag Down),MEADOWWOOD DR & DARLINGTON RD,41.668835,-83.615887,,,,,,0
3263,Meadowwood & Pelham NW (Flag Down),MEADOWWOOD DR & PELHAM RD,41.666827,-83.615812,,,,,,0
3264,Meadowwood & Brantford NW (Flag Down),MEADOWWOOD DR & BRANTFORD RD,41.664801,-83.615785,,,,,,0
3265,Tarkington & Strathmoor (Flag Down),TARKINGTON AVE & STRATHMOOR AVE,41.603514,-83.617057,,,,,,0
3266,Strathmoor & Royal Haven (Flag Down),STRATHMOOR AVE & ROYAL HAVEN DR,41.604335,-83.614239,,,,,,0
3267,Cragmoor & Winston (Flag Down),CRAGMOOR AVE & WINSTON BLVD,41.606299,-83.613426,,,,,,0
3268,Cragmoor & Royal Haven (Flag Down),CRAGMOOR AVE & ROYAL HAVEN DR,41.607098,-83.615982,,,,,,0
3270,Birchwood & Ravenwood (Flag Down),BIRCHWOOD AVE & RAVENWOOD BLVD,41.606321,-83.619808,,,,,,0
3271,Birchwood & Strathmoor NW (Flag Down),BIRCHWOOD AVE & STRATHMOOR AVE,41.603755,-83.619804,,,,,,0
3272,Birchwood & Maeterlinck (Flag Down),BIRCHWOOD AVE & MAETERLINCK AVE,41.602278,-83.619802,,,,,,0
3273,Tarkington & Maeterlinck (Flag Down),TARKINGTON AVE & MAETERLINCK AVE,41.602001,-83.617079,,,,,,0
3274,Copland & Orono NE (Flag Down),COPLAND BLVD & ORONO DR,41.593728,-83.61618,,,,,,0
3275,Dorian & May SE (Flag Down),DORIAN DR & MAY AVE,41.588914,-83.623777,,,,,,0
3276,Dorian & Stengel (Flag Down),DORIAN DR & STENGEL AVE,41.591604,-83.626,,,,,,0
3277,Villa & May NW (Flag Down),VILLA DR & MAY AVE,41.588552,-83.62512,,,,,,0
3278,Villa & Devonshire (Flag Down),VILLA DR & DEVONSHIRE RD,41.5866,-83.623546,,,,,,0
3280,Michigan & Chantilly (Flag Down),MICHIGAN AVE & CHANTILLY DR,41.585751,-83.636952,,,,,,0
3281,Michigan & Parkway (Flag Down),MICHIGAN AVE & PARKWAY DR N,41.588126,-83.638863,,,,,,0
3282,Eastgate & Brogan (Flag Down),EASTGATE RD & BROGAN DR,41.591166,-83.641303,,,,,,0
3284,Schneider & Charmaine (Flag Down),SCHNEIDER RD & CHARMAINE DR,41.608735,-83.617748,,,,,,0
3285,Birchwood & Muirfield (Flag Down),BIRCHWOOD AVE & MUIRFIELD AVE,41.607932,-83.619786,,,,,,0
3286,Cragmoor & Brierheath (Flag Down),CRAGMOOR AVE & BRIERHEATH AVE,41.606868,-83.621644,,,,,,0
3287,Cragmoor & Havenhurst (Flag Down),CRAGMOOR AVE & HAVENHURST AVE,41.605687,-83.623766,,,,,,0
3288,Wilshire & Ravenwood (Flag Down),WILSHIRE AVE & CRAGMOOR AVE,41.604021,-83.624735,,,,,,0
3289,Wilshire & Winston (Flag Down),WILSHIRE AVE & WINSTON BLVD,41.60259,-83.623341,,,,,,0
3290,Maeterlinck & Birchwood (Flag Down),MAETERLINCK AVE & BIRCHWOOD AVE,41.602116,-83.619802,,,,,,0
3291,Birchwood & Strathmoor SE (Flag Down),BIRCHWOOD AVE & STRATHMOOR AVE,41.603575,-83.619588,,,,,,0
3292,Green Valley & Forest Scene (Flag Down),GREEN VALLEY DR & FOREST SCENE DR,41.598001,-83.640811,,,,,,0
3293,Green Valley & Greenglen (Flag Down),GREEN VALLEY DR & GREENGLEN RD,41.60043,-83.642795,,,,,,0
3294,Green Valley & Enfield (Flag Down),GREEN VALLEY DR & ENFIELD ST,41.601986,-83.644057,,,,,,0
3295,Green Valley & Heatherwood (Flag Down),GREEN VALLEY DR & HEATHERWOOD DR,41.604136,-83.645812,,,,,,0
3296,Green Valley & Hurley NW,GREEN VALLEY DR & HURLEY DR,41.593007,-83.636964,,,,,,0
3297,Green Valley & Valleycrest (Flag Down),GREEN VALLEY DR & VALLEYCREST CT,41.590533,-83.634957,,,,,,0
3298,Stengel & Rosemary (Flag Down),STENGEL AVE & ROSEMARY ST,41.589287,-83.629654,,,,,,0
3299,Stengel & Ogontz (Flag Down),STENGEL AVE & OGONTZ AVE,41.590161,-83.628432,,,,,,0
3300,VIlla & May SE (Flag Down),VILLA DR & MAY AVE,41.58849,-83.624796,,,,,,0
3301,Villa & Stengel (Flag Down),VILLA DR & STENGEL AVE,41.590928,-83.626862,,,,,,0
3302,Dorian & May NW (Flag Down),DORIAN DR & MAY AVE,41.588976,-83.624101,,,,,,0
3303,Dorian & Devonshire NW,DORIAN DR & DEVONSHIRE RD,41.586907,-83.622407,,,,,,0
3304,Devonshire & Astor (Flag Down),DEVONSHIRE RD & ASTOR AVE,41.587593,-83.620297,,,,,,0
3305,Devonshire & Escott (Flag Down),DEVONSHIRE RD & ESCOTT AVE,41.588026,-83.619326,,,,,,0
3306,Rocksberry & Detroit (Flag Down),ROCKSBERRY AVE & ROCKSBERRY CT,41.588155,-83.6161,,,,,,0
3307,Meadowwood & Brantford SE (Flag Down),MEADOWWOOD DR & BRANTFORD RD,41.664622,-83.615557,,,,,,0
3308,Meadowwood & Pelham SE (Flag Down),MEADOWWOOD DR & PELHAM RD,41.666647,-83.615584,,,,,,0
3309,Meadowwood & Darlington SE (Flag Down),MEADOWWOOD DR & DARLINGTON RD,41.668655,-83.615658,,,,,,0
3311,Hawthorne & Edgevale (Flag Down),HAWTHORNE RD & EDGEVALE RD,41.660657,-83.630187,,,,,,0
3312,Edgevale & Bancroft (Flag Down),EDGEVALE RD & W BANCROFT ST,41.662295,-83.63115,,,,,,0
3313,Whitehall & Carriage Hill (Flag Down),WHITEHALL RD & CARRIAGE HILL DR,41.660673,-83.63236,,,,,,0
3314,Carriage HIll & Hillandale (Flag Down),CARRIAGE HILL DR & HILLANDALE RD,41.659817,-83.633295,,,,,,0
3315,Hillandale & Emkay (Flag Down),HILLANDALE RD & EMKAY DR,41.660444,-83.636154,,,,,,0
3316,Hillandale & Evergreen (Flag Down),HILLANDALE RD & EVERGREEN RD,41.660964,-83.638604,,,,,,0
3317,Hillandale & Richards (Flag Down),HILLANDALE RD & RICHARDS RD,41.661403,-83.641018,,,,,,0
3318,Talmadge & Bonniebrook (Flag Down),TALMADGE RD & BONNIEBROOK RD,41.664165,-83.64346,,,,,,0
3319,Bonniebrook & Brittany (Flag Down),BONNIEBROOK RD & BRITTANY RD,41.663512,-83.64807,,,,,,0
3320,Brittany & Talmadge (Flag Down),BRITTANY RD & TALMADGE RD,41.66339,-83.643687,,,,,,0
3321,Talmadge & Brookside (Flag Down),TALMADGE RD & BROOKSIDE RD,41.667937,-83.643611,,,,,,0
3322,Forestveiw & Falmouth NE (Flag Down),FORESTVIEW DR & UNNAMED ST,41.672418,-83.645757,,,,,,0
3323,Falmouth & Brookside (Flag Down),FALMOUTH RD & UNNAMED ST,41.668294,-83.64671,,,,,,0
3324,Westchester & Olde Brookside (Flag Down),WESTCHESTER RD & OLDE BROOKSIDE RD,41.669454,-83.648357,,,,,,0
3325,Westchester & Forestview (Flag Down),WESTCHESTER RD & FORESTVIEW DR,41.671452,-83.648433,,,,,,0
3326,Westchester & Falmouth (Flag Down),WESTCHESTER RD & FALMOUTH RD,41.673738,-83.649098,,,,,,0
3327,Miner & Brookside (Flag Down),MINER RD & BROOKSIDE RD,41.674483,-83.651945,,,,,,0
3328,Brookside & Forestvale (Flag Down),BROOKSIDE RD & FORESTVALE RD,41.671818,-83.651364,,,,,,0
3329,Forestview & Westchester (Flag Down),FORESTVIEW DR & WESTCHESTER RD,41.671461,-83.648673,,,,,,0
3330,Forestview & Falmouth SW (Flag Down),FORESTVIEW DR & FALMOUTH RD,41.671959,-83.646356,,,,,,0
3331,Valleyview & Edgehill (Flag Down),VALLEYVIEW DR & EDGEHILL RD,41.674994,-83.654168,,,,,,0
3332,Valleyview & Central (Flag Down),VALLEYVIEW DR & W CENTRAL AVE,41.676863,-83.657162,,,,,,0
3333,Indian & Westchester (Flag Down),INDIAN RD & WESTCHESTER RD,41.675549,-83.648777,,,,,,0
3334,Indian & Scarsborough (Flag Down),INDIAN RD & SCARSBOROUGH RD,41.674605,-83.646782,,,,,,0
3335,Indian & Forestview (Flag Down),INDIAN RD & FORESTVIEW DR,41.673357,-83.644053,,,,,,0
3337,Indian & Sulphur Spring (Flag Down),INDIAN RD & SULPHUR SPRING RD,41.6697,-83.636542,,,,,,0
3338,Indian & Evergreen (Flag Down),INDIAN RD & EVERGREEN RD,41.668307,-83.633694,,,,,,0
3339,Exmoor N (Flag Down),EXMOOR & EVERGREEN RD,41.676241,-83.665795,,,,,,0
3340,Exmoor W (Flag Down),EXMOOR & EVERGREEN RD,41.675304,-83.665997,,,,,,0
3341,Exmoor S (Flag Down),EXMOOR & EVERGREEN RD,41.674252,-83.665035,,,,,,0
3343,Secretariat & Riva Ridge (Flag Down),SECRETARIAT RD & RIVA RIDGE RD,41.673283,-83.661814,,,,,,0
3344,Riva Ridge & W Dauber (Flag Down),RIVA RIDGE RD & W DAUBER DR,41.671546,-83.661114,,,,,,0
3345,W Dauber & Derby (Flag Down),W DAUBER DR & DERBY RD,41.67035,-83.660307,,,,,,0
3346,Derby & Damascus (Flag Down),DERBY RD & DAMASCUS DR,41.66963,-83.659945,,,,,,0
3347,Damascus & Hasty (Flag Down),DAMASCUS DR & HASTY RD,41.668458,-83.661096,,,,,,0
3348,Hasty & Stableside (Flag Down),HASTY RD & STABLESIDE,41.669708,-83.662647,,,,,,0
3349,Hasty & N Citation (Flag Down),HASTY RD & CITATION RD N,41.672702,-83.666244,,,,,,0
3350,S Citation & Hasty (Flag Down),CITATION RD S & HASTY RD,41.671569,-83.664885,,,,,,0
3351,Damascus & Challedon (Flag Down),DAMASCUS DR & CHALLEDON CT,41.668567,-83.660423,,,,,,0
3352,Damascus & Derby (Flag Down),DAMASCUS DR & DERBY RD,41.669531,-83.659717,,,,,,0
3353,Derby & Edgehill (Flag Down),DERBY RD & EDGEHILL RD,41.669326,-83.657855,,,,,,0
3354,Edgehill & Underhill W (Flag Down),EDGEHILL RD & UNNAMED ST,41.664908,-83.655589,,,,,,0
3355,Underhill & Edgehille E (Flag Down),UNDERHILL RD & UNNAMED ST,41.670994,-83.656382,,,,,,0
3356,Edgehill & Derby (Flag Down),EDGEHILL RD & DERBY RD,41.669488,-83.657808,,,,,,0
3357,Derby & E Dauber (Flag Down),DERBY RD & E DAUBER DR,41.669631,-83.658901,,,,,,0
3358,E Dauber & Derby N (Flag Down),W DAUBER DR & E DAUBER DR,41.671882,-83.659013,,,,,,0
3359,W Dauber & Riva Ridge (Flag Down),W DAUBER DR & RIVA RIDGE RD,41.671691,-83.660994,,,,,,0
3360,Riva Ridge & Secretariat E (Flag Down),RIVA RIDGE RD & RIVA RIDGE RD,41.674356,-83.660928,,,,,,0
3361,Riva Ridge & Secretariat N (Flag Down),RIVA RIDGE RD & SECRETARIAT RD,41.676174,-83.660992,,,,,,0
3362,Everygreen & Sulpher Spring (Flag Down),EVERGREEN RD & SULPHUR SPRING RD,41.665531,-83.636114,,,,,,0
3364,Scarsborough & Sheraton (Flag Down),SCARSBOROUGH RD & SHERATON RD,41.675272,-83.646026,,,,,,0
3365,Secretariat & Avatar N (Flag Down),SECRETARIAT RD & AVATAR CT,41.676128,-83.66224,,,,,,0
3366,Nevada & Willard NE (Flag Down),NEVADA ST & WILLARD ST,41.639985,-83.513262,,,,,,0
3367,Nevada & White NE (Flag Down),NEVADA ST & RAYMER BLVD,41.640021,-83.510873,,,,,,0
3368,Richards & Emma Jean NW (Flag Down),RICHARDS RD & EMMAJEAN RD,41.659053,-83.641266,,,,,,0
3369,Bancroft & Grecourt SW (Flag Down),W BANCROFT ST & GRECOURT DR,41.662065,-83.662019,,,,,,0
3370,Page & Kent (Flag Down),PAGE ST & KENT ST,41.666536,-83.542221,,,,,,0
3371,Most Blessed Sacrament Catholic School,4255 BELLEVUE RD,41.696029,-83.596065,,,,,,0
3372,Tecumseh & Collingwood SW,TECUMSEH ST & COLLINGWOOD BLVD,41.644277,-83.554756,,,,,,0
3374,Reynolds & Central SW,N REYNOLDS RD & W CENTRAL AVE,41.674043,-83.671323,,,,,,0
3375,Reynolds & Elmer SW,N REYNOLDS RD & ELMER DR,41.669108,-83.668248,,,,,,0
3377,Sylvania & Violet SW,W SYLVANIA AVE & VIOLET RD,41.69165,-83.625434,,,,,,0
3378,South and Daniels NW,SOUTH AVE & DANIELS AVE,41.630897,-83.570154,,,,,,0
3379,Jeep Pkwy & Central NE,JEEP PKWY & W CENTRAL AVE,41.678466,-83.567394,,,,,,0
3380,Jeep Pkwy & Willys SE,JEEP PKWY & WILLYS PKWY,41.679973,-83.567399,,,,,,0
3381,Jeep Pkwy & Willy SW,JEEP PKWY & WILLYS PKWY,41.680231,-83.567551,,,,,,0
3382,Jeep Pkwy & Central NW,JEEP PKWY & W CENTRAL AVE,41.678842,-83.567517,,,,,,0
